OBJECTID,Join_Count,TARGET_FID,stop_id,stop_name,stop_lat,stop_lon,suburb
1,1,0,7951,Buckley Road (near 108),-41.33689713,174.7827608,Southgate
3,1,2,7786,Aro Street opposite Holloway Road,-41.293883,174.761684,Aro Valley
6,1,5,6913,Taranaki Street (near 217),-41.29900253,174.7752786,Mount Cook
8,1,7,6559,Hataitai Road at Hataitai School,-41.2978909,174.8004493,Hataitai
9,1,8,6163,Houghton Bay - The Esplanade (near 86),-41.341733,174.784566,Houghton Bay
10,1,9,5410,Cockayne Road (near 196),-41.25263441,174.7798706,Ngaio
11,1,10,3014,Ohariu Road (near 67),-41.21715345,174.8025273,Johnsonville
12,1,11,RARO,Raroa Station,-41.23225739,174.8017479,Johnsonville
13,1,12,7729,Quebec Street at Baffin Grove,-41.32097999,174.7635688,Kingston
15,1,14,4936,Mairangi - Norwich Street,-41.26503531,174.764211,Wadestown
16,1,15,3921,Redwood School (school stop),-41.181721,174.821667,Tawa
17,1,16,3237,Churton Drive at Windermeer Grove,-41.21162677,174.8094557,Churton Park
19,1,18,6936,Hungerford Road at Houghton Bay Road,-41.33880744,174.7873543,Houghton Bay
20,1,19,7044,Inglis Street opposite Mantell Street,-41.32819752,174.8319928,Seatoun
23,1,22,7014,Adelaide Road at Basin Reserve (near 12),-41.30174187,174.7795879,Mount Cook
24,1,23,3212,Burbank Crescent at Wantwood Street,-41.20541744,174.8099574,Churton Park
28,1,27,5923,Northland Road (near 87),-41.28150761,174.7590426,Northland
30,1,29,3918,Main Road Tawa (near 249),-41.16506809,174.8268446,Tawa
32,1,31,5423,Cashmere Avenue School (opposite),-41.24783969,174.7985969,Khandallah
33,1,32,7795,Happy Valley Road (near 305),-41.32691632,174.7582324,Owhiro Bay
36,1,35,6040,Dundas Street at Falkirk Avenue,-41.32254646,174.8305202,Seatoun
39,1,38,7131,The Parade (near 98),-41.33253142,174.7735137,Island Bay
40,1,39,7123,Luxford Street at Rintoul Street,-41.31986465,174.7775174,Berhampore
41,1,40,6140,Frobisher Street (near 35),-41.34179991,174.7626964,Island Bay
42,1,41,3980,Middleton Road (near 48),-41.218359,174.809539,Johnsonville
43,1,42,6017,Wellington Hospital - Stop C,-41.308939,174.778593,Newtown
44,1,43,5133,Gloucester Street at Worcester Street (near 21),-41.27009861,174.7570649,Wilton
47,1,46,5454,Bombay Street at Tarikaka Street,-41.24945,174.7811,Ngaio
50,1,49,5516,Courtenay Place - Stop C,-41.29375246,174.7827796,Te Aro
51,1,50,3772,Glanmire Road at Turville Crescent,-41.2291556,174.8239749,Newlands
52,1,51,5098,Jervois Quay at Frank Kitts Park,-41.287709,174.778363,Wellington Central
53,1,52,6091,Raukawa Street at Monorgan Road (opposite 4D),-41.32865,174.81773,Strathmore Park
60,1,59,7092,Raukawa Street (near 40),-41.33114275,174.8166604,Strathmore Park
62,1,61,7124,Adelaide Road at Berhampore Shops,-41.32008781,174.7752171,Berhampore
63,1,62,6270,Awa Road at Seatoun Heights Road,-41.31224788,174.8267676,Miramar
64,1,63,3909,Takapu Road opposite Bing Lucas Drive,-41.18156,174.834726,Grenada North
65,1,64,6941,Russell Terrace opposite Angus Avenue,-41.319251,174.780581,Newtown
70,1,69,7129,The Parade (near 36),-41.32902251,174.7739488,Island Bay
77,1,76,3220,Amesbury Drive at Derry Hill,-41.20189655,174.8047322,Churton Park
78,1,77,6939,Sinclair Park - Houghton Bay Road,-41.33073411,174.7852217,Houghton Bay
79,1,78,7216,Waitoa Road at Bus Tunnel (near 73),-41.30230235,174.7921126,Hataitai
80,1,79,5117,Grosvenor Terrace at Orchard Street steps,-41.26695547,174.7799014,Wadestown
81,1,80,6769,Karepa Street at Mitchell Street,-41.30737327,174.7580655,Brooklyn
87,1,86,6552,Evans Bay Parade (opposite 508),-41.311453,174.796632,Hataitai
88,1,87,5322,Chaytor Street at Joll Street,-41.28269364,174.7521488,Karori
90,1,89,7924,Wellington Zoo - Stop A,-41.31922279,174.7840711,Newtown
92,1,91,6010,Basin Reserve (school stop),-41.3012281,174.7814013,Mount Victoria
94,1,93,7087,Ira Street at Miramar Avenue (near 95),-41.31801756,174.8197174,Miramar
95,1,94,6025,Crawford Road at Childers Terrace,-41.31720028,174.7934594,Kilbirnie
101,1,100,7037,Broadway at Bentinck Avenue,-41.32410641,174.8230364,Strathmore Park
103,1,102,6540,Evans Bay Parade near Point Jerningham,-41.28775,174.80384,Roseneath
108,1,107,3825,Burma Road near Haumia Street (Raroa Intermediate),-41.2297734,174.799941,Johnsonville
109,1,108,5453,Colway Street at Bombay Street,-41.24993521,174.779678,Ngaio
110,1,109,5911,The Terrace at Bolton Street (near 25),-41.27980466,174.7754307,Wellington Central
112,1,111,3036,McLintock Street (near 3),-41.22702988,174.7930154,Johnsonville
115,1,114,6139,Severn Street (near 121) (school stop),-41.34376785,174.7635861,Island Bay
116,1,115,3550,Newlands Road (near 44),-41.23150288,174.812228,Newlands
118,1,117,7218,Moxham Avenue at Raupo Street (near 88),-41.30747512,174.7929403,Hataitai
119,1,118,7700,Brooklyn - Stop A,-41.30503322,174.765401,Brooklyn
120,1,119,3708,Woodridge Drive (near 91),-41.21522,174.8337,Woodridge
123,1,122,7937,Houghton Bay - near Cave Road,-41.34063963,174.7853727,Houghton Bay
124,1,123,7027,Rongotai Road at Ross Street,-41.31859567,174.7982038,Kilbirnie
125,1,124,JOHN,Johnsonville Station,-41.22334496,174.8047433,Johnsonville
127,1,126,3470,Bracken Road at Oswald Crescent,-41.22213869,174.8234219,Newlands
133,1,132,6126,Adelaide Road (near 543),-41.32384,174.77516,Berhampore
134,1,133,7036,Strathmore Park Shops - Broadway,-41.32459439,174.8206604,Strathmore Park
135,1,134,3056,Truscott Avenue at Fairburn Grove,-41.22554285,174.7959574,Johnsonville
136,1,135,4914,The Terrace (near 230),-41.28796876,174.7723522,Wellington Central
139,1,138,6722,Washington Avenue (near 115),-41.30823748,174.7663311,Brooklyn
140,1,139,3907,Jamaica Drive at Calypso Street (hail and ride) (school stop),-41.189024,174.834912,Grenada North
141,1,140,7269,Nevay Road (opposite 16),-41.31069648,174.8280383,Miramar
144,1,143,6729,The Ridgeway at Kingston Heights Road,-41.32079443,174.7639222,Kingston
145,1,144,6952,Buckley Road (near 146),-41.33926205,174.7812717,Southgate
147,1,146,7024,Crawford Road at Kilbirnie Tennis Club,-41.315993,174.790882,Kilbirnie
148,1,147,6419,Adelaide Road opposite McAlister Park,-41.31710309,174.7755308,Berhampore
150,1,149,4430,Homebush Road (near 33),-41.24897686,174.8065049,Khandallah
151,1,150,4433,Onslow Alms - Onslow Road,-41.25311065,174.8013673,Khandallah
152,1,151,3472,Newlands Medical Centre - Stewart Drive,-41.22233952,174.8221152,Newlands
162,1,161,5930,Pembroke Road (near 203),-41.27064127,174.76281,Wilton
163,1,162,4447,Kenya Street (near 37),-41.25438204,174.7716825,Ngaio
170,1,169,7933,View Road (near 24),-41.33481627,174.7891573,Houghton Bay
173,1,172,6143,Frobisher Street at Murchison Street,-41.337256,174.764832,Island Bay
174,1,173,4930,Mairangi Road at Monmouth Way,-41.270825,174.7625761,Wilton
175,1,174,6933,View Road (near 33),-41.334964,174.789209,Houghton Bay
176,1,175,3809,Burma Road near Haumia Street,-41.229609,174.799963,Johnsonville
179,1,178,7223,Kilbirnie Crescent at Childers Terrace,-41.31603037,174.7937765,Kilbirnie
180,1,179,7094,Taiaroa Street at Tukanae Street (near 24),-41.33410437,174.8173402,Strathmore Park
182,1,181,4386,Duthie Street at Hurman Street,-41.2891624,174.7473063,Karori
183,1,182,6921,Mansfield Street at Horner Street,-41.31746837,174.7810364,Newtown
186,1,185,3816,Rajkot Terrace at Orissa Crescent,-41.23724546,174.7963971,Broadmeadows
187,1,186,7213,Brougham Street at Elizabeth Street,-41.29674489,174.7852703,Mount Victoria
190,1,189,4403,Kaiwharawhara Road (near 68),-41.25754386,174.7827493,Kaiwharawhara
191,1,190,6334,Rua Street at Queens Drive,-41.33008808,174.7920152,Lyall Bay
192,1,191,3204,Middleton Road (near 71),-41.21604521,174.8100119,Johnsonville
196,1,195,6922,Mansfield Street at Roy Street (near 311),-41.31882327,174.7815034,Newtown
200,1,199,7564,Moeller Street at Hawker Street,-41.29218588,174.7908578,Mount Victoria
206,1,205,7946,Mt Albert Road opposite National Hockey Stadium,-41.32644504,174.7803546,Berhampore
211,1,210,7545,Kio Bay (opposite),-41.297499,174.80431,Hataitai
215,1,214,7918,John Street at Adelaide Road (near 11),-41.30723661,174.7773118,Newtown
219,1,218,3900,Middleton Road at Glenside Road,-41.20611147,174.8116463,Churton Park
220,1,219,6946,National Hockey Stadium,-41.32652479,174.7804805,Berhampore
221,1,220,7064,Worser Bay - Marine Parade (opposite 185),-41.31463618,174.827639,Seatoun
222,1,221,3274,Halswater Drive opposite Lakewood Reserve,-41.20726,174.805046,Churton Park
223,1,222,7251,Maupuia Road at Miramar Avenue,-41.314427,174.812871,Miramar
228,1,227,4459,Khandallah - Box Hill at Station Road East,-41.24228705,174.7924128,Khandallah
229,1,228,7399,Wellington International Airport,-41.32845388,174.8126281,Rongotai
233,1,232,5914,Salamanca Road at The Terrace,-41.28879378,174.7714192,Te Aro
234,1,233,5113,Molesworth Street (near 95),-41.27428332,174.7778321,Thorndon
235,1,234,6047,Breaker Bay Road (opposite 124),-41.33433213,174.8257117,Breaker Bay
237,1,236,3050,Johnsonville West - McLintock Street (near 74),-41.22308135,174.7920724,Johnsonville
238,1,237,6119,Rintoul Street at Newtown Shops,-41.31236599,174.7789861,Newtown
239,1,238,7098,Kekerenga Street at Ahuriri Street,-41.33619019,174.8164421,Strathmore Park
243,1,242,3416,Beazley Avenue (near 110),-41.21731087,174.8211406,Paparangi
244,1,243,3232,Waverton Terrace (near 12),-41.20481313,174.8025463,Churton Park
247,1,246,4364,Woodhouse Avenue (opposite 24),-41.28976211,174.7254682,Karori
248,1,247,3520,Link Road (near 29),-41.22769428,174.8252466,Newlands
251,1,250,3982,Middleton Road (near 18),-41.21976284,174.8084443,Johnsonville
252,1,251,7021,Constable Street at Owen Street (near 84),-41.31299751,174.7847375,Newtown
253,1,252,6768,Karepa Street (near 175),-41.30602639,174.7577904,Brooklyn
254,1,253,6153,Owhiro Bay - Happy Valley Road (near 4),-41.34410014,174.7595314,Owhiro Bay
260,1,259,7912,Taranaki Street at Abel Smith Street,-41.29718895,174.7760654,Te Aro
263,1,262,4117,Grosvenor Terrace opposite Orchard Street,-41.26722742,174.7797894,Thorndon
264,1,263,6088,Ira Street at Otaki Street,-41.32108693,174.8203238,Miramar
268,1,267,3610,Newlands Shops - Bracken Road,-41.22267889,174.8234369,Newlands
269,1,268,6156,The Esplanade (near 354),-41.34794813,174.7670457,Island Bay
271,1,270,5460,Station Road (near 7),-41.24215939,174.7931904,Khandallah
272,1,271,6784,Aro Street at Epuni Street,-41.29535701,174.7663418,Aro Valley
273,1,272,6011,Wellington College (school grounds),-41.303073,174.782552,Mount Victoria
275,1,274,7343,Coutts Street at Rongotai College (school stop),-41.32173654,174.8019421,Rongotai
277,1,276,7034,Broadway opposite Crawford Green,-41.32526068,174.8145042,Miramar
280,1,279,5412,Punjab Street at Cockayne Road,-41.25209739,174.7854656,Khandallah
281,1,280,4927,Pembroke Road (near 72),-41.27636646,174.7595015,Northland
284,1,283,3200,Middleton Road (near 25),-41.21943,174.80837,Johnsonville
286,1,285,6264,Nevay Road (near 170),-41.29987372,174.8289304,Karaka Bays
293,1,292,5012,Lambton Central - Stop A,-41.2826662,174.7756665,Wellington Central
294,1,293,5469,Burma Road at Fraser Avenue,-41.23676735,174.7981739,Johnsonville
295,1,294,7772,Mitchell Street opposite Virginia Grove,-41.31278631,174.7574942,Brooklyn
299,1,298,7327,Onepu Road at Cruickshank Street,-41.32075882,174.7953439,Kilbirnie
300,1,299,4324,Marsden Village - Karori Road,-41.28229753,174.7460675,Karori
301,1,300,3206,Middleton Road at Churton Drive,-41.2139538,174.8112663,Churton Park
302,1,301,5503,Lambton Quay - Old Govt Buildings (school stop),-41.27921957,174.7777733,Pipitea
303,1,302,4419,Khandallah Village - Stop A,-41.24732664,174.7910641,Khandallah
304,1,303,4362,Parklands Drive (near 18),-41.29065352,174.7260888,Karori
306,1,305,3959,Tawa Intermediate School and College (school stop),-41.16408154,174.8308663,Tawa
307,1,306,6335,Sutherland Road at Rua Street,-41.331349,174.790438,Lyall Bay
311,1,310,5328,Karori Road at St Teresa's School,-41.28556869,174.7347914,Karori
312,1,311,3917,Jamaica Drive at Grenada North Park,-41.186237,174.836814,Grenada North
316,1,315,7517,Oriental Parade (near 260),-41.29112111,174.7956056,Oriental Bay
318,1,317,3530,Somes Crescent at Sunhaven Drive (near 23),-41.2265154,174.8314177,Newlands
320,1,319,3460,Paparangi Shops (opposite),-41.21384667,174.8180624,Paparangi
321,1,320,6526,Grafton Road (near 97),-41.29374564,174.8005742,Roseneath
322,1,321,5349,Montgomery Ave opposite Alanbrooke Pl,-41.27959918,174.7306522,Karori
324,1,323,5934,Mairangi Road at Rutland Way (near 92),-41.26616183,174.7671064,Wadestown
325,1,324,5127,Wadestown School - Wilton Road,-41.26249236,174.765575,Wadestown
327,1,326,6067,Karaka Bay Road (near 321),-41.3082987,174.831555,Karaka Bays
329,1,328,CROF,Crofton Downs Station,-41.25504083,174.7664988,Crofton Downs
331,1,330,5136,Churchill Drive at Wilton Bush Road,-41.263201,174.763316,Wilton
332,1,331,5945,Highbury Road opposite Moana Road,-41.29198636,174.7570551,Highbury
335,1,334,4934,Mairangi Road at Rutland Way (near 107),-41.26569016,174.7667921,Wadestown
338,1,337,4394,Beauchamp Street at Henderson Street,-41.28919352,174.739306,Karori
339,1,338,4456,Mysore Street (near 14),-41.25042003,174.7832716,Ngaio
341,1,340,6920,Riddiford Street near Donald Mclean Street,-41.31576512,174.7805122,Newtown
342,1,341,7301,Strathmore Avenue (near 34),-41.326425,174.820418,Strathmore Park
345,1,344,3822,Kanpur Road (near 59),-41.23758621,174.7918721,Broadmeadows
346,1,345,6224,Kilbirnie - Stop A,-41.31717,174.79587,Kilbirnie
354,1,353,4405,Ngaio Gorge Road (near 67),-41.25658348,174.7754447,Ngaio
355,1,354,4431,Homebush Road (near 1),-41.25080374,174.8048844,Khandallah
357,1,356,6528,Grafton Road (near 171),-41.29678808,174.8018522,Hataitai
358,1,357,6792,Ohiro Road (near 329),-41.31254051,174.7617883,Brooklyn
360,1,359,7785,Aro Street opposite Durham Street,-41.29493422,174.7636015,Aro Valley
361,1,360,3262,Ngauranga - Hutt Road (opposite motorway),-41.24752696,174.8127902,Ngauranga
362,1,361,7788,Raroa Road opposite Harrold Street Walkway,-41.291753,174.75967,Aro Valley
365,1,364,4120,Lennel Road at Sefton Street,-41.26409097,174.7787493,Wadestown
366,1,365,6914,Massey University - Wallace Street,-41.3022585,174.7744113,Mount Cook
369,1,368,3829,John Sims Drive (near 45),-41.23333782,174.7954746,Broadmeadows
371,1,370,3700,Horokiwi Road at Pinkerton Grove,-41.22270841,174.8272553,Newlands
372,1,371,3612,Bracken Road at Carluke Street,-41.21799648,174.8205063,Paparangi
373,1,372,9997,Queens Wharf,-41.28340147,174.7791615,Wellington Central
374,1,373,7417,Adelaide Road at Hall Street (near 254),-41.31032657,174.7768999,Newtown
375,1,374,6043,Inglis Street at Burnham Street (near 91),-41.32604247,174.831574,Seatoun
381,1,380,7713,Brooklyn Road at Central Park,-41.29838519,174.7685734,Brooklyn
383,1,382,5488,Hutt Road at Aotea Quay (to City),-41.26481478,174.784197,Pipitea
385,1,384,3412,Bracken Road at Trebann Street,-41.22089144,174.8225522,Paparangi
387,1,386,6240,Darlington Road at Camperdown Road,-41.30740322,174.8255573,Miramar
388,1,387,3972,Middleton Road opposite Glenside Road,-41.20610959,174.8117655,Glenside
389,1,388,7237,Rotherham Terrace (near 80),-41.31267428,174.8225983,Miramar
390,1,389,7038,Broadway at Cavendish Square,-41.32450923,174.8260348,Strathmore Park
393,1,392,7238,Darlington Road opposite Puriri Street,-41.31184318,174.8238893,Miramar
394,1,393,6337,Queens Drive (opposite 302),-41.33523484,174.7912003,Lyall Bay
400,1,399,4365,Woodhouse Avenue (near 4),-41.28888499,174.7238926,Karori
401,1,400,3222,Amesbury Drive at Claverton Grove,-41.20021017,174.8031355,Churton Park
404,1,403,6527,Grafton Road (near 123),-41.29473227,174.8008402,Roseneath
405,1,404,6568,Thane Road at Robieson Street (near 17),-41.29493848,174.7991738,Roseneath
408,1,407,7546,Greta Point (near 310),-41.30233646,174.804155,Hataitai
410,1,409,7285,Seatoun Heights Road (near 1),-41.32323931,174.8265967,Seatoun
411,1,410,6136,Humber Street at The Parade (school stop),-41.34044,174.77088,Island Bay
414,1,413,3604,Newlands Road at Black Rock Road,-41.22843021,174.8185858,Newlands
416,1,415,5404,Ngaio Gorge Road (opposite 105),-41.25626531,174.7780594,Ngaio
417,1,416,CLIF,Clifton - Cable Car Station,-41.28451384,174.7730767,Wellington Central
418,1,417,3070,Erris Street at Ironside Road,-41.21882257,174.7994715,Johnsonville
419,1,418,3908,Willowbank Road (near 10),-41.18837357,174.8283271,Tawa
420,1,419,4134,Otari School - Otari-Wilton's Bush,-41.26820968,174.7568948,Wilton
421,1,420,7569,Alexandra Road at Lookout Road,-41.29575997,174.7984798,Roseneath
422,1,421,6727,The Ridgeway (near 111),-41.31679402,174.7650407,Mornington
423,1,422,6770,Mitchell Street (near 129),-41.30826267,174.7588061,Brooklyn
427,1,426,6098,Ahuriri Street (near 55),-41.33655597,174.8160938,Strathmore Park
428,1,427,4345,Victory Avenue at Tobruk Street (near 14),-41.28142318,174.7289501,Karori
429,1,428,7040,Seatoun Village - Dundas Street,-41.32269266,174.830777,Seatoun
433,1,432,6732,Halifax Street opposite Breton Grove,-41.32255664,174.7664789,Kingston
434,1,433,6570,Alexandra Road (near 25),-41.29631882,174.7973009,Roseneath
435,1,434,4333,Marsden School - Vera Street (school stop),-41.285701,174.745962,Karori
436,1,435,6935,View Road at Hungerford Road (near 97),-41.33849462,174.7900945,Houghton Bay
439,1,438,7958,Melrose Road (near 41),-41.33666268,174.7791928,Island Bay
441,1,440,3962,Main Road Tawa opposite Sunrise Boulevard,-41.18356281,174.8249741,Tawa
443,1,442,6764,Apuka Street at Mitchell Street,-41.30220476,174.7603155,Brooklyn
444,1,443,6038,Broadway opposite Cavendish Square,-41.32433106,174.8259103,Miramar
451,1,450,6723,Washington Avenue at Connaught Terrace (near 151),-41.3097754,174.7658948,Brooklyn
452,1,451,6924,Wellington Zoo - Stop B,-41.31913091,174.7841881,Newtown
455,1,454,5121,Wadestown Library - Lennel Road,-41.26250167,174.7766768,Wadestown
456,1,455,3435,Mark Avenue (near 206),-41.203663,174.826158,Grenada Village
458,1,457,3970,Middleton Road at Westchester Drive,-41.20404994,174.8167178,Glenside
460,1,459,3054,Truscott Avenue at Elliott Street,-41.22737887,174.7937408,Johnsonville
465,1,464,5341,Marshall Street opposite Ranelagh Street,-41.28603478,174.7277583,Karori
466,1,465,4435,Simla Crescent Station (opposite),-41.247089,174.784399,Khandallah
475,1,474,3702,Horokiwi Road (near 65),-41.22157497,174.830564,Newlands
476,1,475,7256,Kaikoura Street at Akaroa Drive (near 2),-41.30725599,174.8177888,Maupuia
481,1,480,7547,Evans Bay Parade opposite Greta Point Wharf,-41.30352186,174.8032321,Hataitai
482,1,481,6246,Miramar North Road (near 56),-41.30631414,174.8203905,Miramar
483,1,482,5381,Birdwood Street opposite Braithwaite Street,-41.28385942,174.7505817,Karori
484,1,483,5346,Victory Avenue at Montgomery Avenue,-41.28329601,174.7301936,Karori
487,1,486,NGAU,Ngauranga Station,-41.249038,174.813013,Ngauranga
488,1,487,5433,Onslow Alms - Onslow Road (opposite),-41.25310691,174.8016059,Khandallah
492,1,491,5330,Karori Road opposite Tringham Street,-41.28687483,174.7288282,Karori
493,1,492,7012,Cambridge Terrace at Vivian Street,-41.29676236,174.7821092,Te Aro
496,1,495,5016,Wellington Station - Stop E,-41.27843081,174.7789157,Pipitea
497,1,496,7709,Willis Street (near 190),-41.291671,174.773208,Te Aro
499,1,498,5925,Northland Road at Pembroke Road,-41.27939846,174.7614934,Northland
501,1,500,6155,The Esplanade (near 432),-41.34800861,174.7631029,Island Bay
504,1,503,5422,Ranui Crescent at Cashmere Avenue,-41.24696916,174.7966635,Khandallah
518,1,517,7752,Balfour Street (near 83),-41.31640679,174.7681048,Mornington
519,1,518,5139,Cardinal McKeefry School - Wilton Road (opposite),-41.27524886,174.7560091,Wilton
524,1,523,7258,Kaikoura Street at Tamahine Street,-41.30426983,174.8186614,Maupuia
525,1,524,7137,Severn Street at Moselle Street (school stop),-41.34082259,174.7676896,Island Bay
526,1,525,7290,Tannadyce Street (near 87),-41.3275684,174.8262397,Strathmore Park
527,1,526,6002,Wellington Station - Stop D,-41.27826,174.77978,Pipitea
529,1,528,3911,Main Road Tawa at St Francis Xavier School,-41.1792393,174.8249733,Tawa
530,1,529,3024,Erris Street at Cortina Avenue,-41.21826121,174.7950424,Johnsonville
533,1,532,7782,Aro Street at Willis Street,-41.296103,174.770409,Aro Valley
534,1,533,5431,Homebush Road at Onslow Road,-41.25098567,174.80477,Khandallah
536,1,535,6796,Happy Valley Road (opposite 281),-41.32955592,174.7576761,Owhiro Bay
537,1,536,3778,Kenmore Street (near 65),-41.22568139,174.8272188,Newlands
539,1,538,3238,Abilene Crescent at Trilids Lane,-41.20943699,174.8063707,Churton Park
540,1,539,3919,Jamaica Drive opposite Grenada North Park,-41.186132,174.836578,Grenada North
546,1,545,7712,Brooklyn Road opposite Nairn Street,-41.29719639,174.7697356,Aro Valley
547,1,546,7246,Miramar North Road (near 57),-41.30649798,174.8201567,Miramar
548,1,547,7066,Karaka Bay Road (opposite 275),-41.31039222,174.8301801,Karaka Bays
549,1,548,7923,Wellington Zoo - Stop C,-41.31916473,174.7839329,Newtown
558,1,557,3956,Tawa Mall - Main Road (near 206),-41.16978008,174.8250683,Tawa
560,1,559,3518,Kenmore Street (near 72),-41.22567661,174.8273441,Newlands
561,1,560,6959,Melrose Road at Melbourne Road (near 6),-41.33825183,174.7767028,Island Bay
564,1,563,4470,Burma Road opposite Malvina Major,-41.23303,174.7981,Johnsonville
567,1,566,6255,Akaroa Drive opposite Waiwera Crescent,-41.30834352,174.817032,Maupuia
569,1,568,5138,Churchill Drive near Chartwell Drive,-41.25745831,174.7652888,Crofton Downs
570,1,569,7083,Miramar Shops - Stop A,-41.315824,174.814952,Miramar
574,1,573,6215,Pirie Street at Bus Tunnel,-41.29898297,174.7881773,Mount Victoria
579,1,578,3271,Chorley Grove at Chisbury Street,-41.21277272,174.8068407,Churton Park
580,1,579,6236,Park Road at Rotherham Terrace (near 91),-41.31186606,174.8196674,Miramar
584,1,583,5403,Kaiwharawhara Road (near 65),-41.25769,174.78401,Kaiwharawhara
585,1,584,3754,Kentwood Drive (near 14),-41.21787414,174.8310573,Woodridge
588,1,587,7755,Farnham Street at Balfour Street,-41.31984131,174.7689455,Mornington
593,1,592,4368,Hazlewood Avenue (near 62),-41.29698832,174.724106,Karori
594,1,593,6787,Raroa Road at Mt Pleasant Road,-41.293849,174.757618,Aro Valley
598,1,597,3774,Link Road (near 54),-41.22816713,174.8238281,Newlands
601,1,600,4349,Montgomery Avenue at Alanbrooke Place,-41.27941366,174.7308075,Karori
602,1,601,3546,Newlands Road at Salford Street,-41.22906421,174.8183648,Newlands
608,1,607,6909,Ghuznee Street at Cuba Street (opposite),-41.293456,174.776428,Te Aro
614,1,613,7771,Mitchell Street at Colorado Grove,-41.31061453,174.7581526,Brooklyn
615,1,614,4929,Pembroke Road opposite Hereford Street,-41.27149907,174.759729,Wilton
616,1,615,3836,Haumia Street at Fisher Street (school stop),-41.228582,174.79928,Johnsonville
617,1,616,7150,Happy Valley Road (near 85) (school stop),-41.34013523,174.7601364,Owhiro Bay
624,1,623,6346,Airport Retail Park,-41.326261,174.802398,Rongotai
625,1,624,5131,Warwick Street at Gloucester Street (near 4),-41.26879569,174.7597397,Wilton
627,1,626,6039,Ferry Street at Dundas Street,-41.32257494,174.8287288,Seatoun
630,1,629,3476,Stewart Drive at Fitzpatrick Street,-41.22107571,174.8165926,Newlands
633,1,632,6052,Moa Point Road (near 39),-41.33727468,174.8104969,Moa Point
635,1,634,7922,Mansfield Street (near 320),-41.31854692,174.7811853,Newtown
638,1,637,5384,Plymouth Street (near 3),-41.28687342,174.7497529,Karori
640,1,639,5455,Bombay Street at Swansea Street,-41.24924869,174.7824201,Ngaio
641,1,640,4412,Punjab Street (near 10),-41.25218743,174.785468,Khandallah
643,1,642,6069,Karaka Bay Wharf,-41.30437863,174.8312443,Karaka Bays
645,1,644,7101,Frobisher Street at Severn Street,-41.34387992,174.7631935,Island Bay
646,1,645,4329,Karori Road opposite Richmond Avenue,-41.28656133,174.7303544,Karori
647,1,646,4130,Wilton Road at Warwick Street,-41.26797856,174.7602313,Wilton
651,1,650,7746,Hutchison Road - Stop C,-41.307634,174.7750794,Newtown
652,1,651,6022,Constable Street at Coromandel Street (near 123),-41.31260587,174.7867577,Newtown
661,1,660,6142,Frobisher Street (near 75),-41.33952159,174.7644276,Island Bay
663,1,662,4321,Chaytor Street at Curtis Street,-41.28452301,174.7532694,Karori
664,1,663,5415,Calcutta Street (near 30),-41.25142826,174.7879537,Khandallah
666,1,665,4406,Ngaio Gorge Road (near 17),-41.2561607,174.7731629,Ngaio
667,1,666,7222,Wellington Regional Aquatic Centre (opposite),-41.31503208,174.7929168,Kilbirnie
668,1,667,5317,Glenmore Street (near 177),-41.28783015,174.7578989,Kelburn
669,1,668,4432,Onslow Road (near 47),-41.25055234,174.8036839,Khandallah
673,1,672,3913,Jamaica Drive (near 17),-41.181429,174.836826,Grenada North
675,1,674,4925,Northland Road at Seaview Terrace,-41.27948849,174.7614959,Northland
676,1,675,3260,Hutt Road at Rangiora Avenue,-41.25552425,174.7967786,Kaiwharawhara
677,1,676,7562,Hawker Street at Majoribanks Street,-41.29494072,174.7874697,Mount Victoria
680,1,679,4404,Ngaio Gorge Road (near 105),-41.25617527,174.778057,Ngaio
683,1,682,6141,Frobisher Street (near 53),-41.34052845,174.7633791,Island Bay
685,1,684,7523,The Crescent (near 14),-41.28915208,174.8005673,Roseneath
689,1,688,3516,Kenmore Street (near 106),-41.22346462,174.8250097,Newlands
690,1,689,4461,Cashmere Avenue (near 68),-41.24545719,174.7954287,Khandallah
691,1,690,6267,Nevay Road (near 94),-41.30644223,174.8293529,Karaka Bays
692,1,691,4383,Messines Road (near 22),-41.28544373,174.7489983,Karori
695,1,694,5365,Woodhouse Avenue at South Karori Road,-41.28897503,174.723895,Karori
698,1,697,BOXH,Box Hill Station,-41.24601334,174.7887566,Khandallah
699,1,698,6772,Mitchell Street at Virginia Grove,-41.31287452,174.757616,Brooklyn
700,1,699,6551,Evans Bay Parade (opposite 464),-41.30945994,174.7979007,Hataitai
702,1,701,3620,Helston Road at McMahon Way (near 112),-41.21742945,174.8136287,Paparangi
706,1,705,7214,Pirie Street at Porritt Avenue (near 66),-41.29835369,174.7858321,Mount Victoria
708,1,707,7773,Mitchell Street (near 212),-41.31423599,174.7569358,Brooklyn
712,1,711,7927,Hornsey Road at Auckland Terrace,-41.32574519,174.7874752,Melrose
713,1,712,6928,Hornsey Road at Sunglow Avenue (near 47),-41.32764146,174.7871685,Melrose
714,1,713,6237,Rotherham Terrace at Darlington Road,-41.31270032,174.822935,Miramar
716,1,715,7236,Park Road at Rotherham Terrace (near 86),-41.31197783,174.8196472,Miramar
718,1,717,7046,Breaker Bay Road at Eve Bay (near 108),-41.33270588,174.8260247,Breaker Bay
723,1,722,6512,Cable Street at Waitangi Park,-41.29225417,174.7849573,Te Aro
725,1,724,7051,Breaker Bay Road at Palmer Bay,-41.34112993,174.8230332,Breaker Bay
727,1,726,6333,Rua Street at Lyall Parade,-41.33007133,174.7930902,Lyall Bay
730,1,729,5115,Park Street (near 7),-41.27150146,174.7771596,Thorndon
731,1,730,3906,Middleton Road at Richmond Hill Road,-41.19226393,174.8272429,Glenside
733,1,732,3833,Broadmeadows - John Sims Drive (near 23),-41.23470559,174.7973205,Broadmeadows
736,1,735,5943,Moana Road (near 47),-41.28958273,174.7551993,Kelburn
739,1,738,6519,Oriental Parade opposite Carlton Gore Road,-41.288188,174.799517,Oriental Bay
740,1,739,7069,Karaka Bay Road opposite Onehunga Road,-41.30433299,174.8313419,Karaka Bays
742,1,741,3208,Middleton Road opposite Wingfield Place,-41.21115712,174.811547,Churton Park
748,1,747,3704,Woodridge Drive at Glenwood Grove (near 19),-41.21975914,174.8314677,Woodridge
749,1,748,7763,Mitchell Street (near 33),-41.30393215,174.7598395,Brooklyn
750,1,749,4114,Murphy Street - Motorway,-41.27238623,174.7779328,Thorndon
751,1,750,7935,View Road at Hungerford Road (near 92),-41.33849834,174.7898556,Houghton Bay
753,1,752,3770,Kenmore Street (near 6),-41.22857191,174.8267027,Newlands
755,1,754,7244,Miramar Nth Rd opposite David Farrington Pk,-41.30210271,174.8246927,Miramar
758,1,757,6161,The Esplanade (near 184),-41.34490694,174.7773618,Island Bay
759,1,758,5112,Molesworth Street - Cathedral,-41.27622,174.77772,Thorndon
762,1,761,3922,Main Road Tawa (near 337),-41.156187,174.829691,Tawa
764,1,763,WELL9,Wellington Station,-41.27859,174.78115,Pipitea
766,1,765,7553,St Patrick's College - Evans Bay Parade (opposite),-41.313768,174.795413,Kilbirnie
767,1,766,3821,Kanpur Road (near 42),-41.23749088,174.7931148,Broadmeadows
768,1,767,3902,Middleton Road (near 279),-41.20387363,174.8164744,Glenside
769,1,768,3076,Ohariu Road at Hallewell Crescent,-41.21715158,174.8026465,Johnsonville
770,1,769,7328,Onepu Road at Endeavour Street (near 96),-41.32311679,174.7953809,Lyall Bay
772,1,771,3060,Cortina Avenue (near 21),-41.22236372,174.7976599,Johnsonville
776,1,775,4935,Norwich Street at Mairangi Road,-41.26437028,174.7664613,Wadestown
777,1,776,4135,Wilton Park - Wilton Road,-41.26967939,174.7550241,Wilton
781,1,780,3502,Helston Road (near 83),-41.21878747,174.8131891,Paparangi
782,1,781,4121,Lennel Road at Moorhouse Street,-41.26258434,174.7771565,Wadestown
784,1,783,7035,Broadway at Monorgan Road,-41.32516,174.818646,Strathmore Park
785,1,784,7126,Adelaide Road at Duppa Street,-41.32347,174.77504,Berhampore
786,1,785,3012,Johnsonville School - Ohariu Road,-41.2185,174.8058,Johnsonville
788,1,787,5461,Cashmere Avenue (near 57),-41.24519081,174.7951827,Khandallah
789,1,788,3608,Newlands Road opposite Pukehuia Park,-41.22377628,174.8223937,Newlands
791,1,790,4414,Waru Street at Calcutta Street (near 7),-41.25230265,174.7896485,Khandallah
792,1,791,7033,Hobart Street at Broadway,-41.32491208,174.8119468,Miramar
794,1,793,3466,Newlands College - Bracken Road,-41.2188169,174.8227332,Paparangi
795,1,794,7263,Nevay Road (near 198),-41.29853083,174.8284151,Maupuia
796,1,795,6550,Evans Bay Parade opposite Belvedere Road,-41.30828765,174.797988,Hataitai
799,1,798,7909,Ghuznee Street at Cuba Street,-41.2935802,174.7764452,Te Aro
801,1,800,3925,Duncan Street opposite Tawa College (school stop),-41.16387867,174.8309142,Tawa
803,1,802,6037,Broadway at Tio Tio Road,-41.32392067,174.8233897,Miramar
804,1,803,7791,Ohiro Road (near 264),-41.30919642,174.7625344,Brooklyn
805,1,804,6001,Wellington Station - Stop C,-41.27836,174.7796,Pipitea
809,1,808,6937,Houghton Bay - Houghton Bay Road,-41.341266,174.785344,Houghton Bay
810,1,809,4343,Sunshine Avenue opposite Percy Dyett Drive,-41.28371723,174.7259384,Karori
811,1,810,3280,Churton Park - Melksham Drive (near 112),-41.19086,174.80778,Churton Park
812,1,811,5510,Willis Street at Willbank Court,-41.28801096,174.7754582,Wellington Central
815,1,814,3226,Erlestoke Crescent at Tattenhall Grove,-41.1999923,174.7997903,Churton Park
817,1,816,5382,Messines Road at Braithwaite Street (near 1),-41.28436693,174.7487307,Karori
819,1,818,7531,Waipapa Road at Arawa Road,-41.3000259,174.8012174,Hataitai
820,1,819,6929,Hornsey Road (near 65),-41.32945866,174.7868743,Melrose
821,1,820,5402,Kaiwharawhara Road (near 33),-41.25828941,174.7869473,Kaiwharawhara
823,1,822,7567,Roseneath Terrace at Thane Road (near 8),-41.29314341,174.7987662,Roseneath
828,1,827,5429,Homebush Road (near 70),-41.24788522,174.8071909,Khandallah
829,1,828,6244,Miramar North Road at David Farrington Park,-41.30228088,174.8248172,Miramar
835,1,834,3830,Rajkot Terrace at John Sims Drive,-41.23321066,174.7952128,Broadmeadows
836,1,835,6521,Roseneath Shops,-41.28773572,174.8023442,Roseneath
837,1,836,7015,Adelaide Road at Drummond St,-41.30482,174.77856,Mount Cook
839,1,838,5944,Moana Road opposite Disley Street,-41.29055673,174.7563002,Kelburn
840,1,839,4947,Highbury - Terminus,-41.29393718,174.7531663,Karori
842,1,841,5394,Beauchamp Street (near 60),-41.28910709,174.7390648,Karori
845,1,844,7147,Happy Valley Road (near 163) (school stop),-41.33574519,174.7581114,Owhiro Bay
848,1,847,5459,Khandallah - Burma Road at Baroda Street,-41.241789,174.792466,Khandallah
849,1,848,3813,Rajkot Terrace (near 4),-41.23645884,174.7974243,Broadmeadows
850,1,849,7274,Para Street opposite Holy Cross School,-41.316936,174.819422,Miramar
851,1,850,3064,Cortina Avenue opposite Stonefield Place,-41.21950867,174.7959116,Johnsonville
852,1,851,5417,Clutha Avenue (near 40),-41.24846454,174.7873955,Khandallah
854,1,853,4347,Montgomery Avenue (near 24),-41.28238488,174.730886,Karori
855,1,854,3752,Kentwood Drive (near 32),-41.21635875,174.8300607,Woodridge
859,1,858,4305,Gipps Street at Shirley Street (school stop),-41.2874644,174.7464251,Karori
861,1,860,6301,Strathmore Avenue (near 33),-41.32673583,174.820557,Strathmore Park
863,1,862,7793,Ohiro Road (near 362),-41.31552628,174.7609129,Brooklyn
867,1,866,7043,Inglis Street at Burnham Street (near 88),-41.32595434,174.831452,Seatoun
870,1,869,4360,Collier Avenue (near 20),-41.28782834,174.7282833,Karori
876,1,875,3602,Newlands Road (opposite 72),-41.23055745,174.8150654,Newlands
878,1,877,6122,South Wellington Intermediate School (school stop),-41.31787467,174.7780607,Berhampore
879,1,878,6042,Monro Street at Seatoun Park,-41.32556569,174.8332334,Seatoun
880,1,879,6958,Melrose Road (near 32),-41.33686072,174.7792941,Island Bay
881,1,880,5425,Mandalay Terrace (near 27),-41.24714227,174.8028741,Khandallah
884,1,883,5363,Woodhouse Avenue opposite Parklands Drive,-41.29202555,174.7246919,Karori
885,1,884,3214,Burbank Crescent at Longmont Terrace,-41.20360926,174.8103846,Churton Park
888,1,887,3418,Beazley Avenue opposite Beverley Grove,-41.21605794,174.8206287,Paparangi
890,1,889,6162,The Esplanade (near 136),-41.344372,174.780566,Houghton Bay
891,1,890,5132,Gloucester Street (near 5),-41.26917274,174.7587114,Wilton
898,1,897,3524,Kenmore Street (near 5),-41.22858137,174.8261065,Newlands
901,1,900,4449,Ngaio Town Hall - Ottawa Road (opposite),-41.25011915,174.7735962,Ngaio
903,1,902,6128,Adelaide Road at Wakefield Park (opposite),-41.32695,174.77468,Berhampore
905,1,904,5447,Kenya Street (near 52),-41.25463,174.77134,Ngaio
913,1,912,7724,Mills Road at Veronica Street,-41.31184803,174.7658313,Brooklyn
914,1,913,5940,Raroa Road at Cluny Avenue,-41.28926581,174.7571239,Kelburn
915,1,914,7063,Marine Parade (opposite 135),-41.31673429,174.8278487,Seatoun
918,1,917,6752,Balfour Street (opposite 81),-41.31649866,174.7679878,Mornington
921,1,920,4341,Marshall Street at Ranelagh Street,-41.28594295,174.7278753,Karori
922,1,921,7332,Onepu Road at Lyall Parade (near 222),-41.328676,174.795263,Lyall Bay
923,1,922,7711,Willis Street - Abel Smith Street,-41.29498,174.77134,Te Aro
925,1,924,4328,Karori Road opposite St Teresa's School,-41.28536061,174.7350564,Karori
927,1,926,5456,Mysore Street (near 13),-41.25041633,174.7835102,Khandallah
930,1,929,5419,Khandallah Village - Stop B,-41.24714471,174.7911785,Khandallah
933,1,932,6015,Adelaide Road at Broomhedge Street,-41.30453118,174.7788925,Mount Cook
936,1,935,5499,Thorndon Quay at Wellington Station,-41.27811791,174.7803242,Pipitea
937,1,936,5506,Lambton Central - Stop B,-41.28296302,174.7757089,Wellington Central
938,1,937,3420,Paparangi School - Beazley Avenue (opposite),-41.21481821,174.8192822,Paparangi
939,1,938,6223,Kilbirnie Library - Kilbirnie Crescent,-41.3161616,174.7941379,Kilbirnie
942,1,941,6525,Grafton Road at The Crescent,-41.29194497,174.8005247,Roseneath
943,1,942,7563,Hawker Street at Doctors Common,-41.29340653,174.7887021,Mount Victoria
944,1,943,4384,Plymouth Street at Messines Road,-41.28659787,174.7501038,Karori
945,1,944,5534,Everest Street at St Benedict's School,-41.24911433,174.7919484,Khandallah
947,1,946,5428,Homebush Road (near 90),-41.24723625,174.8083664,Khandallah
948,1,947,4128,Izard Park - Wilton Road,-41.264384,174.76415,Wilton
950,1,949,3624,Helston Road at Hardy Street,-41.22087703,174.8120538,Johnsonville
951,1,950,7260,Akaroa Drive opposite Countess Close,-41.30117665,174.8206059,Maupuia
952,1,951,3974,Middleton Road at Wingfield Place,-41.21063059,174.811968,Churton Park
953,1,952,LIND,Linden Station,-41.15895027,174.8320205,Tawa
955,1,954,3526,Kenmore Street at Barclay Street (near 35),-41.22800331,174.8284765,Newlands
957,1,956,3966,Middleton Road opposite Richmond Hill Road,-41.19217012,174.8274788,Glenside
959,1,958,6750,McColl Street opposite Krull Street,-41.31386196,174.7695891,Vogeltown
960,1,959,5342,Marshall Street at Hildreth Street,-41.28460493,174.7270041,Karori
961,1,960,6516,Oriental Parade at Oriental Bay Rotunda,-41.29122976,174.7944144,Oriental Bay
962,1,961,7529,Hataitai Road at Te Anau Road,-41.29715756,174.8012652,Hataitai
963,1,962,6046,Breaker Bay Road at Eve Bay,-41.33288404,174.8261492,Breaker Bay
966,1,965,6218,Moxham Avenue at Raupo Street (near 87),-41.30749464,174.7930105,Hataitai
967,1,966,6150,Happy Valley Road (near 88) (school stop),-41.33994577,174.7602561,Owhiro Bay
969,1,968,5927,Pembroke Road at Cheshire Street,-41.27619004,174.759258,Northland
972,1,971,6542,Evans Bay Parade at Balaena Bay,-41.29200137,174.8026759,Roseneath
973,1,972,7304,Monorgan Road at Leveson Street,-41.33107,174.82093,Strathmore Park
978,1,977,7769,Mitchell Street at Karepa Street,-41.30773158,174.7581946,Brooklyn
979,1,978,7234,Park Road at Byron Street (near 34),-41.31464428,174.8176357,Miramar
980,1,979,7300,Kahurangi School (opposite),-41.328226,174.820524,Strathmore Park
982,1,981,6214,Pirie Street at Porritt Avenue (near 77),-41.29829421,174.7861281,Mount Victoria
984,1,983,REDW2,Redwood Station,-41.17494091,174.8271384,Tawa
988,1,987,6261,Mt Crawford,-41.29421502,174.8272623,Maupuia
990,1,989,3424,Mark Avenue (near 37),-41.21251687,174.8167135,Paparangi
991,1,990,6258,Kaikoura Street (near 49),-41.30390593,174.8188901,Maupuia
992,1,991,7050,Breaker Bay Road at Ranger Point,-41.340048,174.823957,Breaker Bay
995,1,994,4418,Clutha Avenue at Nicholson Road (near 3),-41.24807289,174.7894137,Khandallah
998,1,997,6253,Maupuia Road at Zaida Way,-41.30974715,174.8140353,Maupuia
1003,1,1002,4416,Cockayne Road at Lucknow Terrace,-41.249711,174.786858,Khandallah
1004,1,1003,6266,Nevay Road (near 122),-41.30373333,174.8293003,Karaka Bays
1010,1,1009,3410,Bracken Road (near 29),-41.22160415,174.8230492,Paparangi
1011,1,1010,3614,Helston Road (near 202),-41.21791136,174.81734,Paparangi
1012,1,1011,6345,Rongotai - Tirangi Road (near 95),-41.324736,174.803042,Rongotai
1013,1,1012,5362,Parklands Drive at Landsdowne Terrace,-41.29065173,174.7262082,Karori
1016,1,1015,6942,Russell Terrace opposite Lavaud Street,-41.32363864,174.7802866,Berhampore
1017,1,1016,4346,Victory Avenue opposite Montgomery Avenue,-41.28347609,174.7301984,Karori
1020,1,1019,7730,Kingston - Stop C,-41.32359282,174.7635198,Kingston
1021,1,1020,5514,Courtenay Place at Courtenay Central,-41.29289647,174.77989,Te Aro
1024,1,1023,3616,Helston Road at Warren Street (near 168),-41.21675786,174.8162345,Paparangi
1031,1,1030,5364,Woodhouse Avenue (near 24),-41.2900358,174.7252366,Karori
1036,1,1035,3263,Hutt Road at Centennial Highway,-41.24715179,174.8137345,Ngauranga
1040,1,1039,4125,Wadestown Road opposite Lytton Street,-41.2615297,174.7696077,Wadestown
1041,1,1040,5320,Zealandia - Chaytor Street (Appleton Park),-41.28643876,174.7546373,Northland
1042,1,1041,3899,Tawa School (school stop),-41.17302904,174.8254882,Tawa
1043,1,1042,5011,Lambton Quay North - Stop C,-41.28013616,174.7759675,Wellington Central
1045,1,1044,5000,Courtenay Place - Stop A,-41.29379439,174.7823273,Te Aro
1047,1,1046,6514,Oriental Parade at Freyberg Pool,-41.29093284,174.7903459,Oriental Bay
1048,1,1047,6557,Hataitai Road (near 120),-41.3019554,174.7969124,Hataitai
1051,1,1050,5329,Karori Road at Burrows Avenue,-41.28651938,174.7314729,Karori
1053,1,1052,3448,Mark Avenue (near 164),-41.206068,174.82377,Grenada Village
1055,1,1054,WELL8,Wellington Station,-41.27854,174.78108,Pipitea
1056,1,1055,7143,Frobisher Street opposite Murchison Street,-41.3373516,174.7649665,Island Bay
1060,1,1059,3534,Baylands Drive (near 81),-41.22266105,174.8302364,Newlands
1062,1,1061,7714,Brooklyn Road opposite Nairn Street,-41.30107522,174.7693627,Brooklyn
1064,1,1063,3500,Cashmere Hospital - Helston Road,-41.22015863,174.8119147,Paparangi
1069,1,1068,6012,Kent Terrace at Pirie Street,-41.29689239,174.7824499,Mount Victoria
1071,1,1070,6718,Ohiro Road at Bretby Crescent,-41.30405724,174.7636735,Brooklyn
1072,1,1071,3474,Stewart Drive at Pritchard Street,-41.2223829,174.8193726,Newlands
1074,1,1073,6219,Kilbirnie School - Moxham Avenue,-41.30879333,174.7925706,Hataitai
1079,1,1078,3299,Melksham Drive opposite Mauldeth Terrace,-41.199301,174.807589,Churton Park
1081,1,1080,7955,Orchy Crescent at Buckley Road,-41.342946,174.779383,Southgate
1086,1,1085,7784,Aro Street at Devon Street,-41.29532122,174.7669365,Aro Valley
1088,1,1087,6336,Sutherland Road at Queens Drive,-41.33272135,174.7906534,Lyall Bay
1089,1,1088,6786,Aro Street at Holloway Road,-41.29367,174.761176,Aro Valley
1090,1,1089,3969,Middleton Road (opposite 375),-41.19894402,174.8206312,Glenside
1095,1,1094,WELL6,Wellington Station,-41.27849,174.78091,Pipitea
1097,1,1096,7133,The Parade (near 206),-41.33684747,174.7727667,Island Bay
1101,1,1100,3916,Tawa Mall - Main Road (near 215),-41.16861933,174.8250306,Tawa
1102,1,1101,6749,Short Street at Liardet Street,-41.31295427,174.7700424,Vogeltown
1103,1,1102,4350,Montgomery Avenue opposite Caldwell Street,-41.27936129,174.7282986,Karori
1105,1,1104,4363,Woodhouse Avenue at Parklands Drive,-41.29202019,174.72505,Karori
1107,1,1106,3258,Hutt Road opposite Rangiora Avenue,-41.25589184,174.7963112,Kaiwharawhara
1111,1,1110,5450,Ottawa Road (near 57),-41.24812765,174.7745487,Ngaio
1112,1,1111,7534,Waipapa Road (near 96),-41.30343891,174.7970186,Hataitai
1113,1,1112,4423,Cashmere Avenue School,-41.24740256,174.7977495,Khandallah
1114,1,1113,5932,Mairangi Road opposite Denbigh Way,-41.26772722,174.7648804,Wilton
1117,1,1116,6728,The Ridgeway at Farnham Street,-41.31827163,174.7639737,Mornington
1122,1,1121,3040,Johnsonville West - McClintock Street (near 87),-41.22195,174.7921,Johnsonville
1124,1,1123,4425,Mandalay Terrace (near 24),-41.24750614,174.8026454,Khandallah
1127,1,1126,7521,Roseneath Shops (opposite),-41.28777542,174.8022012,Roseneath
1128,1,1127,3242,Chorley Grove (near 5),-41.21266887,174.807056,Churton Park
1129,1,1128,4369,Karori South - Hazlewood Avenue (near 100),-41.29873119,174.7220021,Karori
1131,1,1130,3230,Waverton Terrace (near 30),-41.20310994,174.8020225,Churton Park
1136,1,1135,7527,Grafton Road (near 114),-41.29455594,174.8005965,Roseneath
1141,1,1140,4381,Birdwood Street at Braithwaite Street,-41.28379968,174.7506154,Karori
1146,1,1145,7240,Darlington Road (near 104),-41.30738983,174.8257139,Miramar
1153,1,1152,5921,Northland Tunnel (opposite Putnam Street),-41.28508277,174.7549592,Northland
1159,1,1158,6125,Adelaide Road (near 493),-41.32141,174.77528,Berhampore
1161,1,1160,7787,Raroa Road opposite Mt Pleasant Road,-41.294012,174.758032,Aro Valley
1165,1,1164,7224,Kilbirnie - Stop B,-41.31760422,174.7959375,Kilbirnie
1166,1,1165,6533,Waipapa Road at Kainui Road,-41.3025162,174.7984266,Hataitai
1168,1,1167,6529,Hataitai Road at Arawa Road,-41.29761146,174.8010388,Hataitai
1169,1,1168,5123,Wadestown Road at Pitt Street,-41.26171345,174.775223,Wadestown
1171,1,1170,6050,Breaker Bay Road at Reef Bay,-41.33975864,174.8243096,Breaker Bay
1172,1,1171,3837,Raroa Intermediate - Haumia Street (school stop),-41.229616,174.801133,Johnsonville
1173,1,1172,5119,Lennel Road at Lower Watt Street,-41.264519,174.7801934,Wadestown
1174,1,1173,6949,Buckley Road (near 45),-41.332919,174.7837278,Southgate
1175,1,1174,6100,Robertson Street (near 17),-41.34389083,174.761438,Owhiro Bay
1178,1,1177,4415,Calcutta Street (near 39),-41.25122,174.788186,Khandallah
1182,1,1181,3038,McLintock Street at Meadowcroft Grove,-41.22530621,174.7938035,Johnsonville
1184,1,1183,3968,Middleton Road (opposite 395),-41.19636483,174.8233249,Glenside
1185,1,1184,6232,Hobart Street at Wexford Road,-41.3195,174.81423,Miramar
1186,1,1185,7953,Buckley Road at Melrose Road,-41.34026166,174.7807014,Southgate
1187,1,1186,7565,Palliser Road at Charles Plimmer Park (near 79),-41.29490876,174.795678,Mount Victoria
1189,1,1188,4351,Montgomery Avenue opposite Skyline Reserve,-41.27874895,174.7270884,Karori
1192,1,1191,3976,Middleton Road at Churton Drive (near 122),-41.21395193,174.8113855,Churton Park
1193,1,1192,7557,Hataitai - Stop C,-41.30381065,174.7944115,Hataitai
1194,1,1193,6081,Miramar Shops - Stop B,-41.31585051,174.8153993,Miramar
1195,1,1194,4393,Beauchamp Street at Verviers Street,-41.29026673,174.7398122,Karori
1197,1,1196,5116,Grant Road opposite Newman Terrace,-41.26895837,174.7785233,Thorndon
1199,1,1198,7245,Miramar North Road (near 103),-41.30412503,174.8221213,Miramar
1200,1,1199,6785,Aro Street at Durham Street,-41.29503899,174.7635863,Aro Valley
1201,1,1200,6719,Ohiro Road at Cleveland Street,-41.30504018,174.763378,Brooklyn
1202,1,1201,6131,The Parade (near 103),-41.333008,174.773617,Island Bay
1203,1,1202,7942,Mount Albert Road at Lavaud Street,-41.32394246,174.7801768,Berhampore
1204,1,1203,3451,Grenada Village - Grenada Drive,-41.20061296,174.8301352,Grenada Village
1206,1,1205,6746,Hutchison Road - Stop D,-41.30749036,174.775289,Mount Cook
1208,1,1207,3452,Mark Avenue at Buccaneer Place,-41.207328,174.82091,Grenada Village
1210,1,1209,KHAN2,Khandallah Station,-41.24265542,174.7933911,Khandallah
1211,1,1210,6213,Brougham Street (near 51),-41.29687478,174.7853803,Mount Victoria
1212,1,1211,7121,Rintoul Street opposite Wakefield Hospital,-41.31671,174.77797,Berhampore
1220,1,1219,6927,Hornsey Road opposite Auckland Terrace,-41.32592897,174.7872412,Melrose
1226,1,1225,4342,Marshall Street at Hildreth Street (near 26),-41.28451311,174.7271211,Karori
1230,1,1229,7097,Ahuriri Street (near 30),-41.33608129,174.8176342,Strathmore Park
1233,1,1232,6948,Buckley Road (opposite 4),-41.33068112,174.7828303,Southgate
1234,1,1233,3224,Amesbury Drive at Erlestoke Crescent,-41.19915588,174.801437,Churton Park
1235,1,1234,3705,Woodridge Drive at Cedarwood Street,-41.21766941,174.8326023,Woodridge
1236,1,1235,3756,Woodridge Drive at Kentwood Drive,-41.21829964,174.8326199,Woodridge
1249,1,1248,7093,Taiaroa Street (near 10),-41.33239377,174.8172926,Strathmore Park
1250,1,1249,6000,Wellington Station - Stop B,-41.27839,174.77933,Pipitea
1251,1,1250,6268,Nevay Road (near 56),-41.3085618,174.8288648,Karaka Bays
1252,1,1251,7956,Melrose Road at Southgate Road,-41.33773703,174.7808716,Southgate
1253,1,1252,5360,Collier Avenue (near 15),-41.28800304,174.7286461,Karori
1256,1,1255,5118,Grosvenor Terrace at Lower Watt Street,-41.26594876,174.7798351,Wadestown
1261,1,1260,7530,Arawa Road at Hohiria Road,-41.29878189,174.801071,Hataitai
1264,1,1263,6019,Riddiford Street at Newtown Shops (near 157),-41.31283943,174.77963,Newtown
1265,1,1264,TAWA1,Tawa Station,-41.169538,174.828352,Tawa
1269,1,1268,6089,Ira Street at Broadway (near 2),-41.324191,174.820133,Miramar
1270,1,1269,4413,Punjab Street at Waru Street (near 36),-41.25378583,174.7869438,Khandallah
1271,1,1270,4331,Karori Park Pavilion - Karori Road,-41.28700485,174.7252091,Karori
1275,1,1274,3964,Willowbank Road (near 21),-41.18837168,174.8284463,Tawa
1280,1,1279,6518,Oriental Parade (opposite 324),-41.28938252,174.7973493,Oriental Bay
1281,1,1280,6065,Worser Bay Lifesaving Club (opposite),-41.3126582,174.8292878,Seatoun
1284,1,1283,LAMB,Lambton Quay - Cable Car Station,-41.2842116,174.7750914,Wellington Central
1286,1,1285,4123,Wadestown Shops (near 98),-41.26181268,174.7746288,Wadestown
1287,1,1286,7571,Alexandra Road (near 46),-41.29724525,174.7956542,Hataitai
1288,1,1287,3808,Raroa Intermediate - Haumia Street,-41.22987386,174.8012171,Johnsonville
1289,1,1288,7753,Balfour Street (near 65),-41.31766544,174.7682583,Mornington
1291,1,1290,4387,Croydon Street (near 2),-41.2905346,174.7468564,Karori
1293,1,1292,7768,Karepa Street (opposite 171),-41.30603004,174.7575516,Brooklyn
1295,1,1294,7748,Finnimore Terrace at Dransfield Street (near 10),-41.31202741,174.7717541,Vogeltown
1296,1,1295,7334,Queens Drive at Rua Street,-41.33027373,174.7916618,Lyall Bay
1299,1,1298,3081,Johnsonville - Stop B,-41.222872,174.805259,Johnsonville
1301,1,1300,6721,Washington Avenue (near 83),-41.30706021,174.7668218,Brooklyn
1303,1,1302,4133,Gloucester Street at Worcester Street (near 22),-41.26992401,174.756702,Wilton
1308,1,1307,6157,The Esplanade at Beach Street (near 300),-41.34587061,174.7695409,Island Bay
1309,1,1308,4402,Kaiwharawhara Road (near 36),-41.25828385,174.7873052,Kaiwharawhara
1311,1,1310,6304,Monorgan Road at Sidlaw Street (opposite 97),-41.33141,174.82071,Strathmore Park
1313,1,1312,7086,Hobart Street at Caledonia Street,-41.32173,174.81319,Miramar
1314,1,1313,3268,Johnsonville Road at Disraeli Street,-41.22545745,174.8071696,Johnsonville
1315,1,1314,7950,Buckley Road (near 78),-41.33507239,174.7842646,Southgate
1328,1,1327,5104,St Mary's College - Hill Street (school stop North),-41.276826,174.775633,Thorndon
1330,1,1329,5129,Wilton Road (near 79),-41.26604398,174.7630444,Wilton
1335,1,1334,6303,Monorgan Road at Raukawa Street,-41.328698,174.81814,Strathmore Park
1339,1,1338,3710,Woodridge - Kentwood Drive,-41.21491443,174.830259,Woodridge
1342,1,1341,3430,Guadeloupe Crescent at Mandeville Crescent,-41.20920031,174.8213927,Grenada Village
1347,1,1346,3764,Somes Crescent at Sunhaven Drive (near 44),-41.22614008,174.8323617,Newlands
1350,1,1349,5935,Mairangi Road at Norwich Street,-41.26464222,174.7663492,Wadestown
1351,1,1350,5416,Cockayne Road at Nairnville Park,-41.24982617,174.7867166,Khandallah
1352,1,1351,6548,Evans Bay Parade near Cog Park,-41.30445397,174.8012272,Hataitai
1353,1,1352,7026,Kilbirnie - Stop C,-41.31730621,174.7955324,Kilbirnie
1358,1,1357,6008,Wellington East Girls' College - Ellice Street (school stop),-41.301056,174.784838,Mount Victoria
1361,1,1360,4915,Te Herenga Waka â€“ Victoria University of Wellington Kelburn - Stop A,-41.28818818,174.7680896,Kelburn
1365,1,1364,7161,The Esplanade (opposite 182),-41.34499882,174.7772448,Island Bay
1368,1,1367,4918,Kelburn Normal School - Upland Road,-41.28702265,174.7608469,Kelburn
1369,1,1368,6160,The Esplanade (near 230),-41.34368704,174.7746992,Island Bay
1370,1,1369,5457,Mysore Street at Cockayne Road,-41.25165092,174.7852147,Khandallah
1374,1,1373,7716,Brooklyn Road opposite Washington Avenue,-41.30265533,174.7661804,Brooklyn
1377,1,1376,3958,Main Road Tawa opposite Elena Place,-41.17266683,174.8247908,Tawa
1379,1,1378,3034,Truscott Avenue opposite Fairburn Grove,-41.22618,174.795899,Johnsonville
1382,1,1381,7949,Buckley Road (near 44),-41.33274449,174.7833646,Southgate
1383,1,1382,7298,Sidlaw Street at Bowes Crescent,-41.33394445,174.8217573,Strathmore Park
1385,1,1384,7336,Queens Drive at Sutherland Road,-41.3326276,174.7908898,Lyall Bay
1389,1,1388,7911,Taranaki Street at Vivian Street,-41.29518976,174.7772055,Te Aro
1392,1,1391,3548,Newlands Road (near 76),-41.23051,174.81548,Newlands
1393,1,1392,7291,Tannadyce Street (near 63),-41.32822515,174.8245852,Strathmore Park
1394,1,1393,6725,Mills Road opposite Vennell Street,-41.31391919,174.7656561,Brooklyn
1397,1,1396,4421,Ranui Crescent at Izard Road,-41.24752611,174.7956047,Khandallah
1401,1,1400,6030,Caledonia Street (near 9) (school stop),-41.32088319,174.8104015,Miramar
1402,1,1401,7346,Airport Retail Park (opposite),-41.32650827,174.8020736,Rongotai
1403,1,1402,4429,Homebush Road (near 59),-41.24761325,174.8073027,Khandallah
1406,1,1405,7725,Mills Road at Vennell Street,-41.31356236,174.7656386,Brooklyn
1408,1,1407,7943,Rintoul Street at Luxford Street (school stop),-41.32022109,174.7777661,Berhampore
1409,1,1408,4116,Grant Road (opposite 24),-41.26852691,174.7790121,Thorndon
1415,1,1414,3600,Newlands Road (opposite 44),-41.23132657,174.8119845,Newlands
1416,1,1415,4137,Churchill Drive near Bowen Hospital,-41.25964154,174.7662305,Crofton Downs
1418,1,1417,6708,Victoria Street at Dixon Street,-41.2912197,174.7754175,Te Aro
1420,1,1419,WELL7,Wellington Station,-41.27852,174.78101,Pipitea
1421,1,1420,6534,Waipapa Road (near 101),-41.30352708,174.7971405,Hataitai
1423,1,1422,3074,Branscombe Street at Ohariu Road,-41.2159023,174.8018965,Johnsonville
1426,1,1425,6265,Nevay Road at Glenville Road,-41.30180194,174.8292892,Karaka Bays
1427,1,1426,4921,Northland Tunnel (near Putnam Street),-41.28517099,174.755081,Northland
1429,1,1428,6544,Evans Bay Parade near Weka Bay,-41.29463,174.80353,Roseneath
1432,1,1431,7028,Rongotai Road at Salek Street,-41.31915122,174.8010692,Kilbirnie
1435,1,1434,3762,Somes Crescent at Baylands Drive,-41.22497666,174.8312093,Newlands
1437,1,1436,6092,Raukawa Street at Nuku Street,-41.330867,174.8170112,Strathmore Park
1441,1,1440,6925,Manchester Street at Caprera Street,-41.32133727,174.7871157,Newtown
1442,1,1441,6763,Mitchell Street (near 38),-41.30383452,174.7597621,Brooklyn
1445,1,1444,7068,Karaka Bay Road (opposite 369),-41.30595789,174.8314895,Karaka Bays
1453,1,1452,4113,Murphy Street - Wellington Girls' College,-41.27533423,174.7797709,Thorndon
1455,1,1454,6569,Alexandra Road (near 7),-41.29585,174.7984823,Roseneath
1456,1,1455,3068,Erris Street (near 22),-41.21786386,174.7974173,Johnsonville
1457,1,1456,6545,Evans Bay Parade near Kio Bay,-41.29794,174.80499,Hataitai
1458,1,1457,6328,Onepu Road at Endeavour Street (near 95),-41.32318785,174.79553,Lyall Bay
1459,1,1458,3622,Helston Park - Helston Road,-41.21923952,174.8130823,Paparangi
1462,1,1461,6726,The Ridgeway at Ingestre Street,-41.31572685,174.7654581,Brooklyn
1464,1,1463,3536,Horokiwi Road at Bloomsbury Grove,-41.22222984,174.8290314,Newlands
1465,1,1464,5421,Everest Street at Izard Road,-41.24744538,174.7950057,Khandallah
1467,1,1466,6147,Happy Valley Road (opposite 165) (school stop),-41.33565516,174.758109,Owhiro Bay
1468,1,1467,3510,Helston Road (near 201),-41.21763562,174.8176902,Paparangi
1471,1,1470,7283,Townsend Road (near 188),-41.32170488,174.8242872,Miramar
1472,1,1471,5323,Karori Road (near 93),-41.28146038,174.7503247,Karori
1473,1,1472,3275,Westchester Drive opposite Halswater Drive,-41.20618989,174.8035664,Churton Park
1475,1,1474,WELL3,Wellington Station,-41.27838,174.78075,Pipitea
1480,1,1479,3250,Johnsonville - Stop C,-41.22326106,174.8045041,Johnsonville
1486,1,1485,6762,Todman Street at Mitchell Street (near 97),-41.30618091,174.7594669,Brooklyn
1487,1,1486,5520,Lambton Central (Brandon Street) - Stop C,-41.28325506,174.7758958,Wellington Central
1489,1,1488,3504,Helston Road at McMahon Way (near 103),-41.21715935,174.8136212,Paparangi
1490,1,1489,7294,Strathmore Community Hall - Strathmore Avenue,-41.33077605,174.8219861,Strathmore Park
1493,1,1492,6027,Rongotai Road (near 119),-41.31848387,174.7991619,Kilbirnie
1496,1,1495,7120,Rintoul Street at Stoke Street,-41.31453973,174.778209,Newtown
1497,1,1496,7039,Ferry Street at Ludlam Street,-41.32266118,174.8289702,Seatoun
1498,1,1497,7522,Grafton Road at The Crescent (near 22),-41.28931346,174.8017659,Roseneath
1500,1,1499,3078,Ohariu Road opposite Johnsonville School,-41.21837469,174.8050659,Johnsonville
1501,1,1500,5508,Lambton Quay at Hunter Street,-41.28500028,174.7756095,Wellington Central
1502,1,1501,5316,Glenmore Street (near 147),-41.2855592,174.7591515,Kelburn
1503,1,1502,TAKA2,Takapu Road Station,-41.18529832,174.8282579,Tawa
1504,1,1503,6771,Mitchell Street at Phoenix Way,-41.3106127,174.758272,Brooklyn
1509,1,1508,7141,Frobisher Street (near 44),-41.34061665,174.763501,Island Bay
1514,1,1513,7345,Rongotai - Tirangi Road (opposite 95),-41.324591,174.802897,Rongotai
1515,1,1514,7338,Lyall Bay - Hungerford Road (near 2),-41.33774275,174.7921056,Lyall Bay
1518,1,1517,7284,Seatoun Heights Road (near 21),-41.32181397,174.8256011,Miramar
1520,1,1519,6023,Crawford Road at Wellington Road,-41.31346353,174.7895288,Kilbirnie
1522,1,1521,4330,Karori Road at Tringham Street,-41.28674901,174.7288185,Karori
1525,1,1524,5408,Perth Street at Crofton Road,-41.25468888,174.7751521,Ngaio
1526,1,1525,6041,Dundas Street at Monro Street (near 55),-41.32312724,174.833643,Seatoun
1527,1,1526,4457,Mysore Street (opposite 138),-41.25165277,174.7850954,Khandallah
1529,1,1528,5350,Montgomery Avenue at Caldwell Street,-41.27947481,174.7282464,Karori
1531,1,1530,6217,Hataitai - Stop B,-41.30387144,174.7938613,Hataitai
1534,1,1533,4115,Park Street at Burnell Avenue,-41.27132139,174.7771548,Thorndon
1535,1,1534,6522,Grafton Road (near 21),-41.28985553,174.8016614,Roseneath
1538,1,1537,4322,Chaytor Street opposite Joll Street,-41.28253896,174.7524773,Karori
1540,1,1539,7770,Mitchell Street at Hoover Street (near 138),-41.30871649,174.7585794,Brooklyn
1544,1,1543,6137,Severn Street (near 55) (school stop),-41.34128194,174.7671045,Island Bay
1545,1,1544,5519,Featherston Street at Waring Taylor Street,-41.28224,174.77768,Wellington Central
1546,1,1545,7540,Evans Bay Parade (near 24),-41.28829131,174.8037679,Roseneath
1548,1,1547,6071,Karaka Bay Road (near 499),-41.29789895,174.8322914,Karaka Bays
1553,1,1552,7723,Washington Avenue at Connaught Terrace,-41.30942076,174.7655269,Brooklyn
1555,1,1554,3422,Mark Avenue near Paparangi Shops,-41.21403051,174.817829,Paparangi
1556,1,1555,3052,McLintock Street opposite Meadowcroft Grove,-41.2253025,174.794042,Johnsonville
1559,1,1558,7264,Nevay Road (near 164),-41.30023005,174.8291792,Karaka Bays
1565,1,1564,3458,Mark Avenue (near 40),-41.21232928,174.8171855,Paparangi
1568,1,1567,7542,Evans Bay Parade (near 94),-41.29145743,174.8028997,Roseneath
1570,1,1569,4931,Mairangi Road (near 159),-41.26855217,174.7639476,Wilton
1571,1,1570,7019,Riddiford Street at Newtown Shops (opposite 157),-41.312675,174.779413,Newtown
1574,1,1573,7160,The Esplanade (opposite 222),-41.34360069,174.7744578,Island Bay
1575,1,1574,3824,Kanpur Road at Jaunpur Crescent,-41.23549684,174.7930082,Broadmeadows
1579,1,1578,7013,Cambridge Terrace at Barker Street,-41.298527,174.781075,Te Aro
1580,1,1579,7041,Dundas Street at Monro Street (near 68),-41.32338781,174.8342477,Seatoun
1582,1,1581,3901,Woodburn Drive (hail and ride) (school stop),-41.173519,174.844769,Takapu Valley
1585,1,1584,5313,Glenmore Street at Botanic Garden,-41.28057112,174.7672564,Kelburn
1588,1,1587,4306,Gipps Street at Cooper Street (school stop),-41.28803358,174.7445295,Karori
1592,1,1591,5348,Montgomery Avenue (near 35),-41.28094608,174.7307285,Karori
1596,1,1595,3256,Ngauranga - Hutt Road (next to motorway),-41.24820366,174.8123829,Ngauranga
1602,1,1601,5418,Clutha Avenue at Nicholson Road (near 6),-41.24780093,174.7895256,Khandallah
1603,1,1602,6711,Victoria Street at Abel Smith Street,-41.29515569,174.7723426,Te Aro
1604,1,1603,5010,Lambton Quay at Cable Car Lane,-41.283856,174.775378,Wellington Central
1605,1,1604,TALA,Talavera - Cable Car Station,-41.28479274,174.7712854,Kelburn
1607,1,1606,5486,Hutt Road opposite School Road,-41.261152,174.788776,Kaiwharawhara
1609,1,1608,5324,Karori Road at Lancaster Street,-41.28224548,174.7463543,Karori
1613,1,1612,7255,Akaroa Drive at Waiwera Crescent,-41.30843772,174.8171049,Maupuia
1615,1,1614,3400,Helston Road at Petherick Crescent (near 19),-41.22144725,174.8101608,Johnsonville
1619,1,1618,3810,Malvina Major Retirement Village,-41.2337925,174.798331,Johnsonville
1620,1,1619,6915,Wallace Street at Howard Street,-41.30459018,174.7750718,Mount Cook
1623,1,1622,6221,Hamilton Road at Wellington Road (near 115),-41.31169948,174.7936844,Hataitai
1625,1,1624,3538,Horokiwi Road opposite Pinkerton Grove,-41.22279845,174.8272578,Newlands
1629,1,1628,7065,Marine Parade opposite Awa Road,-41.31284016,174.8291734,Seatoun
1630,1,1629,7045,Breaker Bay Road at Breaker Bay (near 67),-41.33210322,174.8294499,Breaker Bay
1631,1,1630,7144,Murchison Street at Irwell Street,-41.33655778,174.7638696,Island Bay
1636,1,1635,7936,Houghton Bay Road opposite Hungerford Road,-41.33881857,174.7866376,Houghton Bay
1638,1,1637,7145,Murchison Street opposite Domanski Crescent,-41.3356,174.76104,Owhiro Bay
1646,1,1645,5427,Homebush Road opposite Benares Street,-41.24672041,174.8068008,Khandallah
1647,1,1646,5006,Manners Street at Willis Street,-41.28955075,174.7749028,Te Aro
1649,1,1648,5414,Waru Street at Calcutta Street,-41.25202884,174.7898797,Khandallah
1656,1,1655,5432,Onslow Road (opposite 47),-41.25082618,174.8034528,Khandallah
1661,1,1660,6031,Caledonia Street at Hobart Street (school stop),-41.32147393,174.8129269,Miramar
1662,1,1661,7792,Ohiro Road (near 326),-41.31254233,174.7616688,Brooklyn
1667,1,1666,5924,Northland Road at Kaihuia Street,-41.27933399,174.7598201,Northland
1668,1,1667,3758,Woodridge Drive at Glenwood Grove (near 6),-41.22074761,174.8316146,Woodridge
1669,1,1668,7550,Evans Bay Parade at Belvedere Road,-41.30825,174.79789,Hataitai
1670,1,1669,6124,Luxford St at Berhampore Shops (opposite),-41.31989599,174.7754872,Berhampore
1672,1,1671,3480,Stewart Drive (near 103),-41.22221063,174.8131643,Johnsonville
1673,1,1672,4410,Cockayne Road at Setsan Way,-41.25273182,174.7793958,Ngaio
1674,1,1673,7261,Mt Crawford,-41.29479,174.82782,Maupuia
1675,1,1674,4424,Mandalay Terrace at Onslow Road,-41.24852265,174.8010025,Khandallah
1676,1,1675,6724,Mills Road at Fortunatus Street,-41.3121163,174.765958,Brooklyn
1677,1,1676,6257,Kaikoura Street opposite Cobar Close,-41.30600497,174.8171567,Maupuia
1681,1,1680,3820,Kanpur Road (near 45),-41.2376428,174.7940215,Broadmeadows
1686,1,1685,5922,Northland Village - Northland Road,-41.28331336,174.7572177,Northland
1687,1,1686,5446,Ngaio Gorge Road at Trelissick Crescent,-41.25627278,174.7717336,Ngaio
1692,1,1691,7720,Brooklyn - Stop B,-41.30514192,174.7653414,Brooklyn
1693,1,1692,4411,Cockayne Road at Bankot Crescent (near 155),-41.25213438,174.7830795,Khandallah
1694,1,1693,3508,Helston Road at Warren Street (near 6),-41.216884,174.816366,Paparangi
1696,1,1695,3434,Mark Avenue (near 193),-41.203776,174.825893,Grenada Village
1698,1,1697,5396,Karori Mall - Beauchamp Street (school stop),-41.28507667,174.7369863,Karori
1700,1,1699,3279,Melksham Drive (near 95),-41.193162,174.80826,Churton Park
1703,1,1702,6049,Breaker Bay Road (opposite 160),-41.3383276,174.8236721,Breaker Bay
1704,1,1703,5128,Izard Park - Wilton Road (near 41),-41.26449927,174.7643263,Wadestown
1705,1,1704,4312,Tinakori Road at St Mary Street,-41.27929047,174.7685352,Thorndon
1708,1,1707,7138,Severn Street at Wye Street (school stop),-41.34249272,174.7645078,Island Bay
1714,1,1713,7132,The Parade at Island Bay Shops,-41.33443014,174.7733723,Island Bay
1715,1,1714,5413,Punjab Street at Waru Street,-41.25360577,174.7869389,Khandallah
1717,1,1716,7257,Kaikoura Street at Cobar Close,-41.30573487,174.8171492,Maupuia
1719,1,1718,7270,Awa Road at Nevay Road,-41.31206213,174.8271208,Miramar
1720,1,1719,7728,The Ridgeway at Wentworth Street,-41.31772959,174.7640785,Mornington
1721,1,1720,6033,Broadway at Hobart Street,-41.32527,174.8123,Miramar
1722,1,1721,7917,Hutchison Road - Stop A,-41.3075639,174.7751893,Newtown
1723,1,1722,6932,View Road at Houghton Bay Road,-41.33335188,174.7887568,Houghton Bay
1724,1,1723,5345,Victory Avenue at Tobruk Street,-41.28142676,174.7287113,Karori
1725,1,1724,5500,Wellington Station - Stop A,-41.27875367,174.778686,Pipitea
1726,1,1725,6748,Finnimore Terrace at Dransfield Street,-41.31211639,174.7718116,Vogeltown
1734,1,1733,4390,Campbell Street (near 171),-41.29388411,174.7448049,Karori
1737,1,1736,3478,Stewart Drive (near 89),-41.22209617,174.814712,Newlands
1740,1,1739,7267,Nevay Road at Taipakupaku Road,-41.3063522,174.8293504,Karaka Bays
1741,1,1740,6754,Balfour Street (near 24),-41.31963,174.76703,Mornington
1742,1,1741,7551,Evans Bay Parade (near 468),-41.30955371,174.7976644,Hataitai
1748,1,1747,3273,Abilene Crescent opposite Trilids Lane,-41.20932851,174.806172,Churton Park
1751,1,1750,3426,Mark Avenue (near 75),-41.211269,174.816092,Paparangi
1753,1,1752,6730,Kingston - Stop B,-41.32367919,174.7637611,Kingston
1754,1,1753,7289,Tannadyce Street (near 105),-41.32664343,174.8277672,Strathmore Park
1759,1,1758,6773,Mitchell Street (opposite 212),-41.31423417,174.7570552,Brooklyn
1760,1,1759,6530,Hataitai School - Arawa Road,-41.29868999,174.801188,Hataitai
1761,1,1760,7089,Ira Street at Broadway (near 5),-41.32433374,174.8200557,Miramar
1764,1,1763,5430,Homebush Road (near 29),-41.24925258,174.8061545,Khandallah
1766,1,1765,6567,Roseneath Terrace at Thane Road,-41.29307046,174.7989893,Roseneath
1767,1,1766,3281,Churton Park - Melksham drive near 125,-41.189972,174.807323,Churton Park
1773,1,1772,4129,Wilton Road (near 74),-41.26622588,174.7629299,Wilton
1774,1,1773,5018,Thorndon Quay - Capital Gateway (opposite),-41.27592,174.78199,Pipitea
1775,1,1774,3020,Erris Street at Ironside Road (near 101),-41.21891633,174.7992355,Johnsonville
1776,1,1775,7287,Beacon Hill Road (near 14),-41.32383535,174.8280436,Strathmore Park
1777,1,1776,4940,Raroa Road at Fairview Crescent,-41.28918797,174.7574577,Kelburn
1779,1,1778,6099,Ahuriri Street at Kekerenga Street,-41.33739453,174.8143245,Strathmore Park
1780,1,1779,4131,Warwick Street at Gloucester Street,-41.26866134,174.7595191,Wilton
1781,1,1780,6947,Mt Albert Road at Volga Street,-41.32829274,174.7800169,Island Bay
1782,1,1781,5917,Kelburn Village - Upland Road (St Michael's),-41.28928589,174.7628342,Kelburn
1785,1,1784,3910,Main Road Tawa at Sunrise Boulevard,-41.18356659,174.8247358,Tawa
1794,1,1793,3450,Guadeloupe Crescent at Mark Avenue,-41.206592,174.823415,Grenada Village
1795,1,1794,6509,Wakefield Street (near 234),-41.29190238,174.7808924,Te Aro
1797,1,1796,4426,Mandalay Terrace at Lakshmi Place,-41.24630392,174.8046411,Khandallah
1799,1,1798,4311,Bowen Street (near 38),-41.27824807,174.7743676,Pipitea
1801,1,1800,6931,Houghton Bay Road at Hornsey Road (near 57),-41.33205495,174.7871697,Houghton Bay
1805,1,1804,7796,Happy Valley Road (near 281),-41.32935638,174.7577006,Owhiro Bay
1813,1,1812,6934,View Road opposite Twomey Grove,-41.33669768,174.7898063,Houghton Bay
1822,1,1821,7947,Mt Albert Road at Volga Street,-41.32864918,174.7802656,Island Bay
1824,1,1823,6906,The Terrace at Salamanca Road,-41.2892366,174.7719088,Te Aro
1826,1,1825,5024,Thorndon Quay at Motorway (near 243 - Northbound),-41.27001,174.78111,Pipitea
1828,1,1827,6794,Ohiro Road (near 451),-41.31994895,174.7603151,Brooklyn
1830,1,1829,4323,Karori Road at Standen Street,-41.28118846,174.7504369,Karori
1835,1,1834,5933,Mairangi Road at Dorset Way,-41.26698497,174.766293,Wilton
1840,1,1839,6239,Darlington Road (near 65),-41.30985112,174.8245505,Miramar
1841,1,1840,6260,Akaroa Drive at Countess Close,-41.30109709,174.8205299,Maupuia
1844,1,1843,4451,Ngaio School - Colway Street,-41.247785,174.775708,Ngaio
1845,1,1844,7766,Karepa Street (near 80),-41.30244364,174.7586004,Brooklyn
1855,1,1854,6134,The Parade at Humber Street (near 311),-41.340781,174.77129,Island Bay
1856,1,1855,5386,Duthie Street at Hurman Street (near 71),-41.28933885,174.7475498,Karori
1858,1,1857,3252,Johnsonville Road (near 147),-41.226381,174.807243,Johnsonville
1859,1,1858,3780,Kenmore Street at Horokiwi Road (near 101),-41.22355465,174.8250122,Newlands
1860,1,1859,6080,Miramar Avenue at Tauhinu Road,-41.31498596,174.8131054,Miramar
1863,1,1862,5134,Gloucester Street at Wilton Road,-41.26865804,174.7570263,Wilton
1866,1,1865,4361,Parklands Drive at Collier Avenue,-41.28919861,174.7270058,Karori
1870,1,1869,4126,Wilton Road at Blackbridge Road,-41.2616407,174.7669997,Wadestown
1872,1,1871,4332,Karori - Allington Road,-41.28897687,174.7233106,Karori
1874,1,1873,7526,Grafton Road (near 102),-41.29365934,174.800333,Roseneath
1877,1,1876,7767,Karepa Street at Ashton Fitchett Drive,-41.30421839,174.7582196,Brooklyn
1878,1,1877,6564,Hawker Street at Moeller Street,-41.29200767,174.7907335,Mount Victoria
1879,1,1878,7088,Ira Street at Devonshire Road,-41.3216309,174.8200999,Miramar
1884,1,1883,7030,Caledonia Street (near 10) (school stop),-41.3209751,174.8102845,Miramar
1885,1,1884,7072,Scorching Bay - Massey Road,-41.29640642,174.8332161,Karaka Bays
1889,1,1888,7149,Happy Valley Road opposite Owhiro Bay School (school stop),-41.33851252,174.7597395,Owhiro Bay
1891,1,1890,4367,Hazlewood Avenue (near 16),-41.29410892,174.7239108,Karori
1894,1,1893,3026,Cortina Avenue at Stonefield Place,-41.2193286,174.7959066,Johnsonville
1896,1,1895,6263,Nevay Road (near 196),-41.29852893,174.8285345,Maupuia
1899,1,1898,5912,The Terrace at Aurora Terrace (near 85),-41.28143003,174.7751014,Wellington Central
1900,1,1899,7303,Raukawa Street at Monorgan Road,-41.328656,174.817613,Strathmore Park
1901,1,1900,7268,Nevay Road (opposite 50),-41.3087063,174.82858,Miramar
1902,1,1901,6044,Inglis Street at Mantell Street,-41.3284619,174.8323587,Seatoun
1903,1,1902,7152,Happy Valley Road (near 31) (school stop),-41.34283235,174.7599753,Owhiro Bay
1907,1,1906,6151,Happy Valley Road (near 70) (school stop),-41.34093615,174.7602828,Owhiro Bay
1908,1,1907,AWAR,Awarua Street Station,-41.24650334,174.7742774,Ngaio
1915,1,1914,7100,Robertson Street (near 16),-41.34398269,174.761321,Owhiro Bay
1916,1,1915,7266,Nevay Road at Totara Road,-41.30369984,174.8291769,Miramar
1919,1,1918,4448,Kenya Street at Crofton Road,-41.25174163,174.7735207,Ngaio
1920,1,1919,4315,Glenmore Street at Orangi Kaupapa Road,-41.28344091,174.7621992,Kelburn
1921,1,1920,6957,Melrose Road at Witham Street,-41.33639207,174.7804764,Island Bay
1923,1,1922,6020,Evans Bay Intermediate School (school stop),-41.31547648,174.7964621,Kilbirnie
1924,1,1923,5449,Ottawa Road at Ngaio Town Hall,-41.24999869,174.7735785,Ngaio
1925,1,1924,4946,Highbury Road at Disley Street,-41.29246932,174.7549184,Highbury
1927,1,1926,6035,Broadway at The Quadrant,-41.32498663,174.81864,Miramar
1933,1,1932,7096,Ahuriri Street at Tukanae Street,-41.3343386,174.8196172,Strathmore Park
1937,1,1936,6547,Evans Bay Parade (near 331),-41.304013,174.802988,Hataitai
1938,1,1937,5409,Cockayne Road at Quetta Street,-41.25212923,174.7775892,Ngaio
1939,1,1938,5135,Wilton Park - Wilton Road (near 185),-41.269664,174.755184,Wilton
1944,1,1943,4396,Karori Mall - Beauchamp Street (Recreation Centre),-41.28530028,174.7372434,Karori
1946,1,1945,3760,Baylands Drive (near 82),-41.22230092,174.8302264,Newlands
1952,1,1951,6097,Ahuriri Street (near 41),-41.33626513,174.8174003,Strathmore Park
1953,1,1952,7163,Houghton Bay - The Esplanade,-41.34191307,174.7845709,Houghton Bay
1954,1,1953,3514,Bracken Road (near 96),-41.217813,174.820948,Paparangi
1955,1,1954,7220,Kupe Street at Moxham Avenue,-41.31000594,174.7922648,Hataitai
1957,1,1956,3000,Johnsonville - Stop A,-41.222815,174.80502,Johnsonville
1961,1,1960,6753,Balfour Street (near 54),-41.31802557,174.768268,Mornington
1962,1,1961,7764,Apuka Street opposite Mitchell Street (near 44),-41.30223,174.76055,Brooklyn
1966,1,1965,6714,Brooklyn Road at Nairn Street,-41.30089332,174.7694772,Mount Cook
1967,1,1966,5406,Perth Street at Ngaio Gorge Road,-41.2561754,174.7722084,Ngaio
1970,1,1969,5015,Lambton Quay North - Stop A,-41.27965313,174.7766718,Wellington Central
1973,1,1972,6562,Hawker Street (near 5),-41.29476065,174.7874648,Mount Victoria
1978,1,1977,7722,Washington Avenue (near 104),-41.30787742,174.7666087,Brooklyn
1979,1,1978,4391,Campbell Street (near 133),-41.29165673,174.743193,Karori
1981,1,1980,3522,Glanmire Road at Turville Crescent (near 85),-41.22888928,174.8237288,Newlands
1982,1,1981,6733,Kingston - Stop A,-41.323477,174.763686,Kingston
1983,1,1982,5926,Pembroke Road (near 19),-41.27769874,174.7607313,Northland
1984,1,1983,6917,Hutchison Road - Stop B,-41.30716511,174.776164,Mount Cook
1985,1,1984,6911,Taranaki Street at Frederick Street,-41.29582184,174.7771032,Te Aro
1988,1,1987,6788,Raroa Road (near 96),-41.29175,174.75949,Highbury
1991,1,1990,6954,Buckley Road (near 207),-41.34198154,174.7801507,Southgate
1993,1,1992,6026,Rongotai Road at Bay Road,-41.31779086,174.7948019,Kilbirnie
1997,1,1996,SALA,Salamanca - Cable Car Station,-41.28505357,174.769562,Kelburn
1998,1,1997,3246,Bassett Road (near 40),-41.21733754,174.8080196,Johnsonville
1999,1,1998,5391,Campbell Street (near 106),-41.29157574,174.7425937,Karori
2000,1,1999,3960,Main Road Tawa opposite Redwood Avenue,-41.17760925,174.8255241,Tawa
2001,1,2000,3408,Stewart Drive opposite Batchelor Street,-41.22215757,174.8222295,Newlands
2004,1,2003,6064,Worser Bay - Marine Parade (near 177),-41.31475928,174.8274351,Seatoun
2006,1,2005,6330,Onepu Road at Lyall Bay Shops (near 145),-41.32612,174.79543,Lyall Bay
2008,1,2007,5390,Campbell Street (near 136),-41.29334933,174.7444323,Karori
2012,1,2011,6096,Tukanae Street at Ahuriri Street,-41.33415853,174.8196122,Strathmore Park
2015,1,2014,7928,Hornsey Road opposite Sunglow Avenue (near 49),-41.32769513,174.7868967,Melrose
2016,1,2015,3066,Cortina Avenue at Erris Street,-41.21845057,174.7944511,Johnsonville
2017,1,2016,4320,Zealandia - Chaytor Street (at Tunnel),-41.28710344,174.7547854,Kelburn
2020,1,2019,3454,Grenada Grounds - Mark Avenue (opposite),-41.207819,174.819462,Grenada Village
2021,1,2020,7934,View Road at Twomey Grove,-41.33669954,174.7896868,Houghton Bay
2024,1,2023,4344,Sunshine Avenue at Victory Avenue (near 46),-41.28254032,174.7277069,Karori
2025,1,2024,3954,Main Road Tawa (near 298),-41.16497427,174.8270804,Tawa
2030,1,2029,3228,Waverton Terrace at Sandy Brow,-41.20170855,174.7994795,Churton Park
2032,1,2031,7158,Island Bay - Reef Street at Shorland Park,-41.34311939,174.7706202,Island Bay
2034,1,2033,3028,Cortina Avenue opposite Safari Crescent,-41.22102996,174.7965497,Johnsonville
2036,1,2035,7153,Owhiro Bay - Happy Valley Road,-41.34419383,174.7592948,Owhiro Bay
2039,1,2038,3236,Lakewood Reserve,-41.20711293,174.8052333,Churton Park
2040,1,2039,6045,Breaker Bay Road at Breaker Bay,-41.33229262,174.8293591,Breaker Bay
2042,1,2041,NGAI2,Ngaio Station,-41.25095079,174.7718125,Ngaio
2044,1,2043,7954,Buckley Road at Bann Street,-41.34188,174.78026,Southgate
2051,1,2050,6018,Rongotai College (school grounds),-41.322199,174.801372,Rongotai
2052,1,2051,5327,Karori Mall - Karori Road (opposite),-41.28490242,174.737162,Karori
2057,1,2056,7052,Moa Point - Moa Point Road,-41.33762729,174.8109847,Moa Point
2058,1,2057,7295,Sidlaw Street at Monorgan Road,-41.33143491,174.8209704,Strathmore Park
2060,1,2059,7908,Ghuznee Street at Willis Street,-41.2924613,174.7730709,Te Aro
2063,1,2062,7925,Manchester Street opposite Caprera Street,-41.32143101,174.7868793,Newtown
2065,1,2064,5315,Glenmore Street (opposite 100),-41.28353095,174.7622016,Kelburn
2066,1,2065,3832,John Sims Drive (near 40),-41.23355405,174.796296,Broadmeadows
2068,1,2067,7914,Massey University - Wallace Street (opposite),-41.30190388,174.7740434,Mount Cook
2070,1,2069,7931,Houghton Bay Road at Hornsey Road,-41.33196862,174.7869283,Houghton Bay
2076,1,2075,3709,Kentwood Drive at Cedarwood Street,-41.21405,174.832141,Woodridge
2077,1,2076,3768,Kenmore Street at Barclay Street (near 32),-41.22809335,174.828479,Newlands
2080,1,2079,3404,Stewart Drive at Padnell Crescent,-41.22142267,174.8174372,Newlands
2082,1,2081,3950,Main Road Tawa (near 330),-41.15719542,174.8291287,Tawa
2085,1,2084,4932,Mairangi Road opposite Warwick Street,-41.26744064,174.7659471,Wilton
2087,1,2086,6918,John Street at Adelaide Road,-41.307116,174.777515,Mount Cook
2088,1,2087,6238,Darlington Road at Puriri Street (near 33),-41.311502,174.823812,Miramar
2089,1,2088,7099,Strathmore Park - Kekerenga Street,-41.33620488,174.8138573,Strathmore Park
2096,1,2095,6930,Hornsey Road (opposite 50),-41.33013,174.78608,Melrose
2097,1,2096,4127,Wilton Road opposite Purakau Avenue,-41.26213039,174.7656847,Wadestown
2099,1,2098,6222,Wellington Regional Aquatic Centre,-41.31511839,174.7931581,Kilbirnie
2101,1,2100,4945,Moana Road at Highbury Road,-41.29162075,174.7574036,Kelburn
2103,1,2102,7062,Marine Parade (opposite 109),-41.31793768,174.8283555,Seatoun
2106,1,2105,3202,Middleton Road (near 59),-41.21731693,174.8093312,Johnsonville
2107,1,2106,5426,Mandalay Terrace at Narbada Crescent,-41.24630766,174.8044026,Khandallah
2110,1,2109,6132,Island Bay Shops - The Parade,-41.33469,174.77346,Island Bay
2113,1,2112,7212,Elizabeth Street at Kent Terrace,-41.2958177,174.7831941,Mount Victoria
2114,1,2113,6327,Onepu Road at Coutts Street,-41.319932,174.795761,Kilbirnie
2115,1,2114,7071,Karaka Bay Road (opposite 495),-41.29829472,174.8323831,Karaka Bays
2116,1,2115,4453,Colway Street (near 62),-41.25003,174.77963,Ngaio
2117,1,2116,KELB,Kelburn - Cable Car Station,-41.28536474,174.7676499,Kelburn
2120,1,2119,5405,Ngaio Gorge Road (opposite 65),-41.256645,174.775596,Ngaio
2123,1,2122,3432,Guadeloupe Crescent (near 39),-41.209212,174.823047,Grenada Village
2129,1,2128,7128,Adelaide Road at Wakefield Park,-41.32636,174.77463,Berhampore
2130,1,2129,5395,Beauchamp Street at Dasent Street,-41.2878556,174.7384345,Karori
2131,1,2130,7157,The Esplanade opposite Beach Street,-41.34623,174.76946,Island Bay
2132,1,2131,3506,Helston Road at Beazley Avenue,-41.21659284,174.8152756,Paparangi
2133,1,2132,6120,Rintoul Street (near 63),-41.31489986,174.7782188,Newtown
2135,1,2134,5331,Karori Road opposite Karori Park,-41.28718564,174.7251662,Karori
2136,1,2135,3914,Main Road Tawa at Elena Place,-41.17242839,174.824706,Tawa
2137,1,2136,5103,St Mary's College - Hill Street (school stop South),-41.276971,174.774992,Pipitea
2138,1,2137,7148,Happy Valley Road (near 137) (school stop),-41.33735121,174.7591106,Owhiro Bay
2145,1,2144,6960,Island Bay Shops - Medway Street,-41.33478363,174.7727471,Island Bay
2146,1,2145,REDW1,Redwood Station,-41.17635099,174.8269643,Tawa
2147,1,2146,7136,Humber Street at The Parade (near 28) (School Stop),-41.34033,174.77112,Island Bay
2148,1,2147,7794,Ohiro Road (near 457),-41.32013267,174.7600811,Brooklyn
2150,1,2149,7718,Ohiro Road at Tanera Crescent,-41.30371254,174.7636832,Brooklyn
2154,1,2153,5124,Wadestown Shops (near 109),-41.26191375,174.7739154,Wadestown
2155,1,2154,6133,The Parade (near 225),-41.337635,174.77253,Island Bay
2156,1,2155,7288,Beacon Hill Road at Kinghorne Street,-41.32538679,174.8274931,Strathmore Park
2158,1,2157,3244,Chorley Grove at Hawtrey Terrace,-41.21453712,174.8085389,Churton Park
2159,1,2158,5351,Montgomery Avenue at Skyline Reserve,-41.27857067,174.7269643,Karori
2161,1,2160,7337,Queens Drive (near 304),-41.33541677,174.7910858,Lyall Bay
2165,1,2164,6036,Strathmore Park Shops (opposite),-41.32441244,174.8207748,Miramar
2166,1,2165,4942,Moana Road (near 18),-41.288094,174.754708,Kelburn
2168,1,2167,7219,Moxham Avenue near Goa Street,-41.30863,174.7924831,Hataitai
2169,1,2168,5513,Manners Street at Cuba Street - Stop B,-41.29096552,174.7766131,Te Aro
2172,1,2171,6070,Karaka Bay Road at Pretoria Road,-41.3000082,174.8318007,Karaka Bays
2173,1,2172,3270,Chorley Grove at Te Kiteora Grove,-41.21458713,174.8083302,Churton Park
2179,1,2178,4139,Cardinal McKeefry School - Wilton Road,-41.27542347,174.756372,Northland
2180,1,2179,6252,Maupuia Road at Aranui Street (near 61),-41.31200172,174.8138589,Maupuia
2181,1,2180,7525,The Crescent at Grafton Road,-41.29167861,174.8002785,Roseneath
2185,1,2184,7142,Frobisher Street (near 64),-41.33955278,174.7645811,Island Bay
2189,1,2188,4385,Duthie Street at Gipps Street,-41.28753813,174.7475018,Karori
2190,1,2189,6013,Kent Terrace at Basin Reserve,-41.29889854,174.7813038,Mount Victoria
2191,1,2190,6144,Murchison Street at Jordan Street,-41.33673785,174.7638744,Island Bay
2196,1,2195,3544,Newlands Road at Stella Grove (near 164),-41.22643629,174.8193657,Newlands
2197,1,2196,7297,Sidlaw Street (near 69),-41.33275133,174.823158,Strathmore Park
2198,1,2197,4469,Burma Road at John Sims Drive,-41.23622901,174.7980398,Johnsonville
2200,1,2199,5913,The Terrace at Dalmuir Lane,-41.28378,174.77454,Wellington Central
2201,1,2200,3776,Link Road (near 8),-41.22640923,174.8267618,Newlands
2203,1,2202,5928,Pembroke Road at Huntingdon Street (near 117),-41.27412835,174.7586057,Wilton
2204,1,2203,5111,Molesworth Street at Parliament,-41.27851311,174.7780663,Pipitea
2205,1,2204,7333,Rua Street at Freyberg Street,-41.32988941,174.7932047,Lyall Bay
2206,1,2205,6082,Devonshire Road (near 43) (school stop),-41.32132362,174.816746,Miramar
2207,1,2206,3239,Abilene Crescent opposite Furlong Crescent,-41.20962136,174.8030917,Churton Park
2208,1,2207,7575,Mt Victoria Lookout,-41.296426,174.7947,Mount Victoria
2212,1,2211,7032,Hobart Street at Kedah Street,-41.32355219,174.8125065,Miramar
2213,1,2212,6767,Karepa Street opposite Ashton Fitchett Drive,-41.3043066,174.7583415,Brooklyn
2215,1,2214,7239,Darlington Road (near 64),-41.3094723,174.8248141,Miramar
2223,1,2222,3482,Helston Road opposite Petherick Crescent,-41.22159,174.81002,Johnsonville
2224,1,2223,5411,Cockayne Road at Bankot Crescent (near 156),-41.25213808,174.7828409,Ngaio
2226,1,2225,7750,McColl Street at Krull Street,-41.31385312,174.7694296,Vogeltown
2227,1,2226,5312,Tinakori Road opposite St Mary Street,-41.27928496,174.7688933,Kelburn
2228,1,2227,5361,Parklands Drive at Lynmouth Avenue,-41.28955875,174.7270153,Karori
2230,1,2229,3468,Bracken Road (near 30),-41.22151223,174.8231659,Paparangi
2231,1,2230,3295,Furlong Crescent at Edington Grove,-41.20984551,174.7997179,Churton Park
2232,1,2231,6034,Broadway at Crawford Green,-41.32518596,174.8146779,Miramar
2233,1,2232,7232,Hobart Street at Chelsea Street,-41.31937495,174.8146608,Miramar
2236,1,2235,7296,Beacon Hill - Sidlaw Street,-41.33157525,174.8234837,Strathmore Park
2237,1,2236,6950,Buckley Road (near 77),-41.33507054,174.7843841,Southgate
2241,1,2240,WELL4,Wellington Station,-41.27841,174.7808,Pipitea
2242,1,2241,4388,Croydon Street opposite Versailles Street,-41.29177888,174.7470178,Karori
2244,1,2243,6101,Frobisher Street at Teme Way,-41.34305938,174.762349,Island Bay
2245,1,2244,6761,Todman Street (near 63),-41.3069,174.76047,Brooklyn
2246,1,2245,7941,Russell Terrace at Te Wharepouri Street,-41.319247,174.780436,Berhampore
2247,1,2246,5407,Perth Street at Orari Street Walkway,-41.25453272,174.7735962,Ngaio
2248,1,2247,7532,Waipapa Road opposite Peranga Terrace,-41.30059937,174.8000461,Hataitai
2255,1,2254,3216,Lakewood Avenue at Westchester Drive,-41.20237876,174.8084425,Churton Park
2258,1,2257,6710,Victoria Street at Ghuznee Street,-41.293102,174.773659,Te Aro
2259,1,2258,3532,Somes Crescent at Baylands Drive (near 45),-41.22502026,174.8309995,Newlands
2260,1,2259,7749,Short Street at Moffitt Street,-41.3127742,174.7700375,Vogeltown
2261,1,2260,7155,The Esplanade (opposite 432),-41.34810414,174.7627469,Island Bay
2262,1,2261,3254,Centennial Highway at Glover Street,-41.24256197,174.8134883,Ngauranga
2263,1,2262,4313,Botanic Garden - Glenmore Street (opposite),-41.28057662,174.7668983,Thorndon
2269,1,2268,3978,Middleton Road (near 76),-41.21594955,174.8103671,Churton Park
2271,1,2270,7025,Rongotai Road at Childers Terrace,-41.31773462,174.793773,Kilbirnie
2278,1,2277,6149,Happy Valley Road near Owhiro Bay School (school stop),-41.33860073,174.7598613,Owhiro Bay
2281,1,2280,4317,Glenmore Street at Kelburn Viaduct,-41.28783562,174.7575408,Kelburn
2283,1,2282,3456,Mark Avenue (near 70),-41.21067529,174.8163093,Paparangi
2284,1,2283,5515,Manners Street at Cuba Street - Stop A,-41.29140832,174.7771028,Te Aro
2286,1,2285,7761,Todman Street (near 60),-41.3068488,174.7603218,Brooklyn
2291,1,2290,3406,Stewart Drive at Loasby Crescent,-41.22185024,174.8188806,Newlands
2292,1,2291,5916,Upland Road (near 39),-41.28770954,174.7657772,Kelburn
2296,1,2295,4941,Raroa Road (near 1),-41.28767924,174.7559842,Kelburn
2297,1,2296,6235,Park Road at Brussels Street (near 63),-41.31309675,174.8186678,Miramar
2300,1,2299,7031,Caledonia Street at Hobart Street (near 38) (school stop),-41.32156584,174.8128099,Miramar
2302,1,2301,4392,Verviers Street at Kano Street,-41.28997496,174.7412375,Karori
2303,1,2302,7731,Halifax Street (near 24),-41.32419009,174.7656866,Kingston
2304,1,2303,5028,Kaiwharawhara - Fore Street,-41.25940794,174.79032,Kaiwharawhara
2308,1,2307,6765,Karepa Street at Apuka Street,-41.30195839,174.7587561,Brooklyn
2313,1,2312,5448,Kenya Street at Crofton Road (near 6),-41.25228919,174.7730581,Ngaio
2315,1,2314,3030,Cortina Avenue (near 20),-41.22236186,174.7977791,Johnsonville
2316,1,2315,4348,Montgomery Avenue (near 50),-41.28076421,174.7308431,Karori
2319,1,2318,7915,Wallace Street (near 82),-41.30468314,174.7750352,Mount Cook
2320,1,2319,7018,Riddiford Street at Hall Street,-41.31110551,174.7789518,Newtown
2322,1,2321,4382,Messines Road at Braithwaite Street (near 2),-41.28436357,174.7485907,Karori
2323,1,2322,5311,St Mary's College - Hawkestone Street (school stop),-41.274902,174.77545,Thorndon
2324,1,2323,WELL1,Wellington Station,-41.27832,174.78063,Pipitea
2325,1,2324,3272,Cambrian Street (near 10),-41.210689,174.805264,Churton Park
2328,1,2327,5347,Montgomery Avenue (near 13),-41.28230022,174.7305255,Karori
2329,1,2328,7271,Awa Road at Totara Road,-41.3121105,174.8255185,Miramar
2331,1,2330,WELL2,Wellington Station,-41.27835,174.78066,Pipitea
2332,1,2331,3402,Stewart Drive (near 112),-41.22211872,174.8132811,Johnsonville
2337,1,2336,4922,Northland Village - Northland Road,-41.28352121,174.7569474,Northland
2339,1,2338,5392,Verviers Street at Kano Street (near 39),-41.29015684,174.7411229,Karori
2340,1,2339,5401,Kaiwharawhara Road at Hutt Road (near 7),-41.25969845,174.7890149,Kaiwharawhara
2346,1,2345,6566,Palliser Road (near 46),-41.29388606,174.7973535,Roseneath
2347,1,2346,7017,Wellington Hospital - Stop B,-41.30877386,174.7782912,Newtown
2349,1,2348,3839,Onslow College (school stop),-41.230806,174.798389,Johnsonville
2356,1,2355,7080,Miramar Avenue at Portsmouth Road,-41.31512989,174.813152,Miramar
2359,1,2358,6121,Rintoul Street at Wakefield Hospital,-41.317,174.77807,Berhampore
2361,1,2360,5318,Glenmore Street (near 205),-41.28847498,174.7569609,Kelburn
2363,1,2362,6535,Hataitai - Stop E,-41.30427,174.7948,Hataitai
2365,1,2364,5125,Wadestown Road at Lytton Street,-41.26171527,174.7692546,Wadestown
2369,1,2368,7520,Carlton Gore Road at Maida Vale Road,-41.28814863,174.8013756,Roseneath
2371,1,2370,7948,Buckley Road at Houghton Bay Road,-41.330773,174.7827133,Southgate
2373,1,2372,6220,Kupe Street at Hamilton Road,-41.31025845,174.7929054,Hataitai
2375,1,2374,6242,Darlington Road (near 215),-41.30215485,174.8270831,Miramar
2376,1,2375,6720,Brooklyn - Stop C,-41.30491941,174.7649254,Brooklyn
2379,1,2378,6055,Wellington Hospital - Stop A,-41.308603,174.77847,Newtown
2380,1,2379,7134,The Parade at Humber Street (near 300),-41.34061258,174.7712297,Island Bay
2381,1,2380,7754,Balfour Street (near 21),-41.31968,174.76683,Mornington
2386,1,2385,6066,Karaka Bay Road (near 279),-41.31012403,174.8300531,Karaka Bays
2393,1,2392,6302,Strathmore Avenue at Elphinstone Avenue,-41.329638,174.821485,Strathmore Park
2396,1,2395,6216,Waitoa Road at Bus Tunnel,-41.30220991,174.7920934,Hataitai
2397,1,2396,3277,Melksham Drive at Mauldeth Terrace,-41.19829559,174.8075856,Churton Park
2399,1,2398,5388,Croydon Street at Versailles Street,-41.29186529,174.747259,Karori
2400,1,2399,6417,Adelaide Road at Hall Street (near 261),-41.31086678,174.7769145,Newtown
2402,1,2401,4455,Bombay Street (near 7),-41.24935254,174.7824071,Ngaio
2405,1,2404,6212,Elizabeth Street (near 7),-41.2958103,174.7836717,Mount Victoria
2406,1,2405,4928,Pembroke Road at Huntingdon Street,-41.27394318,174.7585879,Wilton
2408,1,2407,3016,Branscombe Street (near 5),-41.21590044,174.8020157,Johnsonville
2409,1,2408,5140,Curtis Street opposite Randwick Road (School Stop),-41.278999,174.755281,Wilton
2410,1,2409,5931,Mairangi Road (near 217),-41.26906555,174.7635728,Wilton
2411,1,2410,7265,Nevay Road opposite Glenville Road,-41.3015972,174.8291261,Miramar
2413,1,2412,3606,Newlands Road at Stella Grove (near 143),-41.22653009,174.8191297,Newlands
2414,1,2413,3618,Helston Road (near 142),-41.21704301,174.8152881,Paparangi
2418,1,2417,6274,Para Street at Holy Cross School,-41.31731882,174.8193826,Miramar
2419,1,2418,3912,Main Road Tawa at Redwood Avenue,-41.17761303,174.8252858,Tawa
2421,1,2420,4924,Northland Road at Military Road,-41.2794222,174.7599418,Northland
2422,1,2421,4428,Homebush Road (near 67),-41.24714809,174.8082447,Khandallah
2424,1,2423,7253,Akaroa Drive at Maupuia Road,-41.30919943,174.814498,Maupuia
2426,1,2425,5383,Messines Road (near 15),-41.28535188,174.7491152,Karori
2427,1,2426,7247,Park Road (near 99) (school stop),-41.31118343,174.8200482,Miramar
2428,1,2427,6755,Farnham Street near Priscilla Crescent,-41.31990528,174.7690357,Mornington
2431,1,2430,7920,Riddiford Street at Gordon Street,-41.31536587,174.7802983,Newtown
2438,1,2437,6129,The Parade (near 21),-41.32939592,174.7739918,Island Bay
2439,1,2438,3462,Paparangi School - Beazley Avenue,-41.21481444,174.8195207,Paparangi
2444,1,2443,7259,Kaikoura Street (near 102),-41.30262759,174.8204201,Maupuia
2445,1,2444,5319,Karori Tunnel - Stop B,-41.2873982,174.7566931,Kelburn
2450,1,2449,7726,The Ridgeway at Mornington Road,-41.31600062,174.7652266,Brooklyn
2451,1,2450,TAWA2,Tawa Station,-41.169105,174.828352,Tawa
2452,1,2451,5380,Zealandia - Birdwood Street,-41.28671615,174.7541671,Karori
2456,1,2455,5343,Sunshine Avenue at Percy Dyett Drive,-41.28368269,174.7258403,Karori
2457,1,2456,7023,Crawford Road opposite Wellington Road,-41.31346538,174.7894094,Newtown
2460,1,2459,5344,Sunshine Avenue at Victory Avenue,-41.2824333,174.7276632,Karori
2462,1,2461,7732,Priscilla Crescent at Breton Grove,-41.32236741,174.7670712,Kingston
2463,1,2462,7281,Wilberforce Street opposite Madison Place,-41.32271044,174.8222107,Miramar
2467,1,2466,6793,Ohiro Road (near 381),-41.31588276,174.7611615,Brooklyn
2468,1,2467,3072,Branscombe Street at Lomita Road,-41.21728266,174.8000257,Johnsonville
2469,1,2468,4408,Perth Street at Crofton Road (near 1),-41.25478075,174.7750352,Ngaio
2471,1,2470,4352,Karori West - Montgomery Avenue,-41.2779207,174.7282606,Karori
2472,1,2471,7518,Oriental Parade (near 328),-41.28913951,174.7977585,Oriental Bay
2473,1,2472,7418,Adelaide Road opposite Stoke Street,-41.31421831,174.7756915,Newtown
2476,1,2475,6271,Awa Road at Totara Road (near 32),-41.31235686,174.825576,Miramar
2477,1,2476,5941,Raroa Road (near 4),-41.28777109,174.7558672,Kelburn
2478,1,2477,7217,Hataitai - Stop A,-41.3039399,174.793724,Hataitai
2479,1,2478,4366,Hazlewood Avenue (near 30),-41.29304814,174.7225691,Karori
2481,1,2480,TAKA1,Takapu Road Station,-41.18528848,174.8283009,Tawa
2483,1,2482,7566,Palliser Road (near 45),-41.29397609,174.797356,Roseneath
2484,1,2483,3512,Helston Road at Jane Grove,-41.217584,174.819773,Paparangi
2489,1,2488,6086,Hobart Street at Devonshire Road,-41.32175367,174.8133269,Miramar
2491,1,2490,7548,Cog Park (opposite),-41.30460136,174.8006834,Hataitai
2492,1,2491,7146,Murchison Street opposite Happy Valley Park,-41.3339,174.7583,Owhiro Bay
2506,1,2505,6256,Kaikoura Street at Akaroa Drive (near 3),-41.30725787,174.8176694,Maupuia
2510,1,2509,6273,Para Street opposite Miramar Central School,-41.31513727,174.820636,Miramar
2512,1,2511,5946,Highbury Road at Disley Street (near 25),-41.29255936,174.7549208,Highbury
2514,1,2513,4913,The Terrace at Dalmuir Lane (near 130),-41.28352506,174.7745211,Wellington Central
2515,1,2514,7042,Seatoun - Hector Street,-41.32536278,174.8346616,Seatoun
2518,1,2517,4395,Beauchamp Street opposite Dasent Street,-41.28767372,174.7385491,Karori
2520,1,2519,4407,Perth Street at Orari Street Walkway (near 15),-41.25462091,174.773718,Ngaio
2521,1,2520,7907,The Terrace opposite MacDonald Crescent,-41.2909638,174.7708808,Te Aro
2522,1,2521,3414,Newlands College - Bracken Road (opposite),-41.21917703,174.8227432,Paparangi
2524,1,2523,5126,Wilton Road opposite Blackbridge Road,-41.26165091,174.7675817,Wadestown
2525,1,2524,7049,Breaker Bay Road at Reef Bay (near 160),-41.33823947,174.8235501,Breaker Bay
2528,1,2527,5130,Warwick Street at Wilton Road,-41.268302,174.75963,Wilton
2530,1,2529,7292,Tannadyce Street (near 27),-41.32972388,174.8244572,Strathmore Park
2535,1,2534,3218,Westchester Drive (near 111),-41.20258691,174.8066593,Churton Park
2537,1,2536,7241,Miramar - Darlington Road (near 124),-41.30571237,174.8261227,Miramar
2545,1,2544,7151,Happy Valley Road (near 71) (school stop),-41.34084977,174.7600414,Owhiro Bay
2554,1,2553,5332,Karori - Karori Road,-41.2883212,174.7239003,Karori
2556,1,2555,7252,Maupuia Road at Aranui Street (near 60),-41.31190549,174.8139125,Maupuia
2564,1,2563,4450,Ottawa Road (near 54),-41.24839194,174.7746236,Ngaio
2567,1,2566,6782,Aro Street at Ohiro Road,-41.29602594,174.7697039,Aro Valley
2568,1,2567,6532,Waipapa Road at Peranga Terrace (near 31),-41.30059563,174.8002849,Hataitai
2570,1,2569,5492,Thorndon Quay at Motorway (near 248 - Southbound),-41.269979,174.781194,Pipitea
2573,1,2572,5942,Moana Road (near 15),-41.28823219,174.7551631,Kelburn
2574,1,2573,SIML,Simla Crescent Station,-41.24679734,174.7843365,Khandallah
2587,1,2586,7515,Oriental Parade at Oriental Terrace,-41.29143216,174.7929868,Oriental Bay
2588,1,2587,6087,Ira Street at Miramar Avenue,-41.31812155,174.8198828,Miramar
2589,1,2588,6558,Hataitai Road (near 90),-41.3001772,174.7982429,Hataitai
2591,1,2590,4943,Moana Road (near 46),-41.28949451,174.7550775,Kelburn
2592,1,2591,3002,Johnsonville Road (Opposite Shopping Centre),-41.22377449,174.8073827,Johnsonville
2596,1,2595,6716,Brooklyn Road at Washington Avenue,-41.30283723,174.7660659,Brooklyn
2599,1,2598,7952,Buckley Road (opposite 143),-41.3392639,174.7811522,Southgate
2600,1,2599,WELL5,Wellington Station,-41.27847,174.78086,Pipitea
2603,1,2602,6956,Melrose Road opposite Southgate Road (near 76),-41.3377152,174.7807125,Southgate
2604,1,2603,7541,Evans Bay Parade opposite Little Karaka Bay,-41.28956112,174.8032058,Roseneath
2605,1,2604,3952,Main Road Tawa at McLellan Street,-41.1614516,174.8276976,Tawa
2607,1,2606,3276,Westchester Drive at Amesbury Drive,-41.20243108,174.8065973,Churton Park
2608,1,2607,3904,Middleton Road (near 409),-41.195701,174.823981,Glenside
2613,1,2612,7570,Alexandra Road (near 14),-41.29622692,174.7974178,Roseneath
2614,1,2613,6546,Greta Point - Evans Bay Parade,-41.30213455,174.8044392,Hataitai
2615,1,2614,6014,Adelaide Road at Basin Reserve (near 13),-41.30163532,174.7797694,Mount Cook
2617,1,2616,6531,Arawa Road at Waipapa Road,-41.29992156,174.8014241,Hataitai
2618,1,2617,6791,Ohiro Road at Taft Street,-41.30919459,174.7626538,Brooklyn
2619,1,2618,6553,St Patrick's College - Evans Bay Parade,-41.31400726,174.7955384,Kilbirnie
2620,1,2619,4420,Everest Street opposite Ganges Road,-41.24842286,174.7935187,Khandallah
2621,1,2620,7020,Constable Street at Riddiford Street,-41.31369064,174.7806946,Newtown
2625,1,2624,4917,Kelburn Village - Upland Road (near 94),-41.28902492,174.7622301,Kelburn
2627,1,2626,6571,Alexandra Road at Upoko Road,-41.29761097,174.7953059,Hataitai
2629,1,2628,6951,Buckley Road (near 109),-41.33690719,174.782933,Southgate
2634,1,2633,7221,Hamilton Road at Wellington Road (near 124),-41.31170466,174.7935129,Hataitai
2635,1,2634,3266,Ngauranga Gorge (Kiwi Point),-41.23835001,174.8056109,Ngauranga
2643,1,2642,7242,Darlington Road (near 188),-41.30197289,174.8271974,Miramar
2644,1,2643,6245,Miramar North Road (near 98),-41.30439702,174.8220094,Miramar
2650,1,2649,6332,Onepu Road at Lyall Parade,-41.32886365,174.7954469,Lyall Bay
2653,1,2652,7082,Devonshire Road (near 42) (school stop),-41.32141177,174.8168679,Miramar
2654,1,2653,KHAN1,Khandallah Station,-41.24268712,174.7934831,Khandallah
2655,1,2654,3814,Broadmeadows - Rajkot Terrace,-41.23655,174.79749,Broadmeadows
2656,1,2655,3818,Kanpur Road at Sita Way,-41.23653449,174.795781,Broadmeadows
2657,1,2656,7910,Taranaki Street at Courtenay Place (near 72),-41.29337248,174.778231,Te Aro
2658,1,2657,7533,Waipapa Road at Huia Road,-41.30211318,174.7985938,Hataitai
2659,1,2658,3210,Halswater Drive at Dormar Place,-41.20773958,174.8112141,Churton Park
2660,1,2659,4926,Pembroke Road (near 24),-41.277722,174.761165,Northland
2661,1,2660,3905,Takapu Road at Woodburn Drive (hail and ride) (school stop),-41.178715,174.838655,Takapu Valley
2663,1,2662,6083,Devonshire Road at Ira Street (school stop),-41.32127644,174.8197316,Miramar
2664,1,2663,7215,Pirie Street (near 106),-41.299073,174.7881798,Mount Victoria
2665,1,2664,6093,Taiaroa Street at Raukawa Street,-41.33167917,174.8169143,Strathmore Park
2666,1,2665,5920,Zealandia - Northland Tunnel Road,-41.2865265,174.7548218,Northland
2667,1,2666,4417,Clutha Avenue at Cockayne Road,-41.24855457,174.787398,Khandallah
2668,1,2667,6713,Brooklyn Road opposite Central Park,-41.2987435,174.7687025,Mount Cook
2673,1,2672,7932,Houghton Bay Road opposite View Road,-41.33284854,174.7882669,Houghton Bay
2674,1,2673,7926,Sutherland Road at Sutherland Crescent,-41.32266179,174.7888247,Melrose
2678,1,2677,3058,Broderick Road (near 102),-41.22407624,174.7975875,Johnsonville
2679,1,2678,3961,Main Road Tawa opposite St Francis Xavier School,-41.17923552,174.8252116,Tawa
2680,1,2679,7715,Brooklyn Road opposite Bidwill Street,-41.302445,174.769565,Brooklyn
2681,1,2680,6243,Darlington Road opposite Maupuia Park,-41.30117208,174.8265779,Miramar
2685,1,2684,7930,Hornsey Road (near 48),-41.32982266,174.7859137,Melrose
2691,1,2690,7514,Oriental Parade Opposite Freyberg Pool,-41.2913004,174.7898782,Oriental Bay
2693,1,2692,3920,Main Road Tawa opposite McLellan Street,-41.1614535,174.8275785,Tawa
2695,1,2694,7070,Karaka Bay Road opposite Pretoria Road,-41.3000063,174.8319201,Karaka Bays
2699,1,2698,5385,Duthie Street at Plymouth Street,-41.28753632,174.7476211,Karori
2700,1,2699,5451,Colway Street opposite Ngaio School,-41.24783149,174.7759212,Ngaio
2702,1,2701,6766,Karepa Street (near 73),-41.30250042,174.7586513,Brooklyn
2704,1,2703,7330,Onepu Road at Lyall Bay Shops,-41.3254424,174.795353,Lyall Bay
2708,1,2707,3234,Westchester Drive at Waverton Terrace,-41.20623688,174.8036588,Churton Park
2710,1,2709,6715,Brooklyn Road at Bidwill Street,-41.30287408,174.7695308,Mount Cook
2713,1,2712,3062,Cortina Avenue at Safari Crescent,-41.22103182,174.7964304,Johnsonville
2716,1,2715,3428,Mark Avenue at Grenada Grounds,-41.207884,174.818954,Grenada Village
2721,1,2720,3542,Newlands School - Newlands Road,-41.22442916,174.8209802,Newlands
2722,1,2721,7512,Oriental Parade at Cable Street,-41.29235383,174.7858466,Oriental Bay
2723,1,2722,7762,Todman Street at Mitchell Street (near 88),-41.30581895,174.7595766,Brooklyn
2725,1,2724,6095,Tukanae Street (near 12),-41.33281184,174.8193357,Strathmore Park
2726,1,2725,5498,Thorndon Quay - Capital Gateway,-41.27646,174.7813,Pipitea
2727,1,2726,4923,Northland Road (near 88),-41.2816895,174.7589281,Northland
2729,1,2728,6259,Kaikoura Street at Akaroa Drive (near 109),-41.30243471,174.8205121,Maupuia
2730,1,2729,3817,Kanpur Road at Rajkot Terrace,-41.23621918,174.79595,Broadmeadows
2736,1,2735,4327,Karori Mall - Karori Road,-41.28443602,174.7382243,Karori
2737,1,2736,7959,Melrose Road at Melbourne Road (near 1),-41.33809102,174.7763168,Island Bay
2741,1,2740,6028,Rongotai Road at Troy Street,-41.31886671,174.8011461,Kilbirnie
2742,1,2741,NGAI1,Ngaio Station,-41.25099114,174.7719045,Ngaio
